"","ID","LAT","LON","ELEV","ST","NAME","GSN","HCN","WMOID","TMAXf","TMAXl","TMINf","TMINl","PRCPf","PRCPl","natmax","natmin","naprcp"
"25","USC00020949",33.9431,-114.0242,281.9,"AZ","BOUSE                         ","   ","   ","     ",1932,2017,1932,2017,1932,2017,543,534,547
"41","USC00026242",31.9353,-109.2186,1664.2,"AZ","PARADISE                      ","   ","   ","     ",1906,2022,1906,2022,1906,2022,85,86,93
"59","USC00029464",33.7775,-112.5231,513,"AZ","WITTMANN 1SE                  ","   ","   ","     ",1930,2020,1930,2020,1923,2020,320,328,342
"79","USC00033132",36.2747,-91.5056,121.9,"AR","HARDY                         ","   ","   ","     ",1897,2022,1897,2022,1897,2022,168,163,313
"90","USC00034756",34.5978,-94.29,351.1,"AR","MENA                          ","   ","HCN","     ",1891,2022,1891,2022,1890,2022,557,562,577
"182","USC00047111",33.0194,-117.0308,197.5,"CA","POWAY VALLEY                  ","   ","   ","     ",1893,2016,1897,2016,1893,2022,119,119,560
"218","USC00050109",40.155,-103.1417,1384.4,"CO","AKRON 4 E                     ","   ","   ","     ",1893,2022,1893,2022,1893,2022,299,298,419
"267","USC00057460",38.4039,-106.4236,2578.6,"CO","SARGENTS                      ","   ","   ","     ",1900,2022,1900,2022,1899,2022,24,24,519
"333","USC00093060",34.1408,-82.855,164.6,"GA","ELBERTON 2 N                  ","   ","   ","     ",1891,2022,1891,2022,1891,2022,381,374,474
"338","USC00094204",31.8878,-82.5808,76.2,"GA","HAZLEHURST                    ","   ","   ","     ",1918,2015,1918,2015,1918,2015,259,305,327
"341","USC00095204",33.7764,-82.4714,138.4,"GA","LINCOLNTON                    ","   ","   ","     ",1892,2021,1892,2021,1893,2021,50,31,431
"353","USC00098974",30.8056,-83.2736,80.8,"GA","VALDOSTA 2 S                  ","   ","   ","     ",1905,2017,1905,2017,1905,2017,467,459,317
"365","USC00102667",42.4261,-112.1253,1482.9,"ID","DOWNEY                        ","   ","   ","     ",1895,2022,1895,2022,1895,2022,26,37,24
"378","USC00105275",42.1231,-111.3133,1809,"ID","LIFTON PUMPING STN            ","   ","HCN","     ",1919,2022,1919,2022,1919,2022,557,555,571
"382","USC00106152",46.7281,-116.9558,810.8,"ID","MOSCOW U OF I                 ","   ","HCN","     ",1893,2022,1893,2022,1893,2022,562,552,565
"384","USC00106424",46.2325,-116.243,990,"ID","NEZPERCE                      ","   ","   ","     ",1901,2020,1901,2020,1901,2020,456,454,462
"386","USC00106586",44.1758,-116.2828,937.3,"ID","OLA                           ","   ","   ","     ",1896,2017,1896,2017,1896,2017,294,285,510
"390","USC00107208",42.8917,-112.4086,1472.8,"ID","POCATELLO 2 NE                ","   ","   ","     ",1899,2017,1899,2017,1899,2017,241,238,229
"393","USC00107386",48.3511,-116.8353,722.7,"ID","PRIEST RVR EXP STN            ","   ","HCN","     ",1898,2022,1898,2022,1898,2022,547,546,579
"404","USC00109950",44.9628,-115.4961,1539.2,"ID","YELLOWPINE                    ","   ","   ","     ",1926,2021,1926,2021,1926,2022,162,163,113
"409","USC00111329",39.2975,-87.9747,189,"IL","CASEY                         ","   ","   ","     ",1893,2021,1893,2021,1893,2021,134,140,529
"423","USC00113580",37.2036,-89.0422,117.3,"IL","GRAND CHAIN DAM 53            ","   ","   ","     ",1923,2022,1923,2022,1923,2022,500,468,479
"427","USC00114198",40.4664,-87.685,216.4,"IL","HOOPESTON                     ","   ","HCN","     ",1902,2021,1902,2021,1902,2021,579,591,578
"434","USC00115825",41.3708,-88.4336,159.7,"IL","MORRIS 1 NW                   ","   ","   ","     ",1912,2021,1912,2021,1911,2021,461,470,442
"446","USC00117345",39.0061,-87.7769,163.1,"IL","ROBINSON                      ","   ","   ","     ",1895,2021,1895,2021,1895,2021,183,189,188
"447","USC00117391",41.5181,-90.5647,173.1,"IL","ROCK ISLAND L&D 15            ","   ","   ","     ",1872,2022,1872,2022,1866,2022,239,247,206
"453","USC00118740",40.0839,-88.2403,219.8,"IL","CHAMPAIGN 3S                  ","   ","HCN","     ",1902,2021,1902,2021,1902,2022,545,548,576
"457","USC00119331",39.635,-90.4528,167.9,"IL","WINCHESTER                    ","   ","   ","     ",1897,2015,1897,2015,1897,2015,376,379,352
"461","USC00120676",40.6683,-84.93,255.7,"IN","BERNE WWTP                    ","   ","HCN","     ",1910,2022,1910,2022,1910,2022,546,573,574
"463","USC00120852",38.0303,-87.2736,121.9,"IN","BOONVILLE 1S                  ","   ","   ","     ",1897,2022,1897,2022,1897,2022,173,173,396
"471","USC00124657",41.3053,-86.6286,210.3,"IN","KNOX WWTP                     ","   ","   ","     ",1897,2022,1897,2022,1897,2022,157,165,217
"472","USC00124662",40.4583,-86.1758,250.5,"IN","KOKOMO 3 WSW                  ","   ","   ","     ",1901,2021,1901,2021,1901,2021,553,556,551
"473","USC00124837",41.6117,-86.7297,246.6,"IN","LAPORTE                       ","   ","HCN","     ",1897,2022,1897,2022,1897,2022,562,573,505
"474","USC00125117",40.7478,-86.3878,182.9,"IN","LOGANSPORT CICOTT ST          ","   ","   ","     ",1893,2022,1893,2022,1891,2022,189,187,567
"477","USC00126580",38.8878,-86.5519,198.7,"IN","OOLITIC PURDUE EX FM          ","   ","HCN","     ",1893,2021,1893,2021,1893,2021,567,570,577
"507","USC00131402",43.0603,-92.6717,302.7,"IA","CHARLES CITY                  ","   ","HCN","     ",1893,2021,1893,2021,1893,2021,534,533,489
"526","USC00133473",41.72,-92.7489,275.8,"IA","GRINNELL 3 SW                 ","   ","   ","     ",1893,2019,1893,2019,1893,2019,517,525,502
"539","USC00134585",40.6233,-93.9342,343.8,"IA","LAMONI                        ","   ","   ","     ",1897,2022,1897,2022,1897,2022,504,508,514
"558","USC00136766",43.09,-91.5581,355.1,"IA","POSTVILLE                     ","   ","   ","     ",1901,2021,1897,2021,1893,2021,329,270,291
"565","USC00137594",43.1803,-95.8533,432.8,"IA","SHELDON                       ","   ","   ","     ",1899,2019,1899,2019,1899,2022,545,547,546
"572","USC00137859",43.4231,-95.1394,432.8,"IA","SPIRIT LAKE                   ","   ","   ","     ",1893,2022,1893,2022,1893,2022,169,168,365
"577","USC00138693",42.5736,-95.7181,350.5,"IA","WASHTA                        ","   ","   ","     ",1905,2019,1905,2019,1897,2019,137,179,305
"585","USC00140693",39.4575,-98.1125,424,"KS","BELOIT                        ","   ","   ","     ",1893,2021,1893,2021,1893,2021,526,574,541
"587","USC00141179",39.8775,-98.3036,503.2,"KS","BURR OAK 1N                   ","   ","   ","     ",1900,2020,1900,2020,1900,2020,328,355,393
"604","USC00143527",38.8586,-99.3358,612.6,"KS","HAYS 1 S                      ","   ","HCN","     ",1892,2022,1892,2022,1892,2022,547,548,573
"614","USC00144341",37.0175,-98.49,403.9,"KS","KIOWA                         ","   ","   ","     ",1893,2022,1893,2022,1893,2022,83,91,258
"620","USC00144972",39.1972,-96.5814,323.1,"KS","MANHATTAN                     ","   ","HCN","     ",1893,2022,1893,2022,1893,2022,563,560,587
"642","USC00147796",38.2144,-98.2078,498.7,"KS","STERLING                      ","   ","   ","     ",1893,2022,1893,2022,1893,2022,474,488,465
"648","USC00148535",38.9111,-101.5853,1009.2,"KS","WALLACE                       ","   ","   ","     ",1903,2022,1903,2022,1893,2022,86,83,197
"650","USC00148578",39.8089,-97.055,397.8,"KS","WASHINGTON                    ","   ","   ","     ",1893,2022,1893,2022,1893,2022,521,525,587
"667","USC00157158",38.0969,-83.1189,231.6,"KY","SANDY HOOK 1NE                ","   ","   ","     ",1893,2017,1893,2017,1893,2017,127,174,123
"692","USC00170814",45.6603,-69.812,325.8,"ME","BRASSUA DAM                   ","   ","HCN","     ",1929,2021,1929,2021,1929,2021,497,500,574
"699","USC00175460",45.5853,-69.7186,316.1,"ME","MOOSEHEAD                     ","   ","   ","     ",1931,2021,1931,2021,1930,2021,205,227,586
"702","USC00181790",39.6403,-77.6978,162.2,"MD","HAGERSTOWN 1 E                ","   ","   ","     ",1899,2021,1899,2021,1899,2021,254,254,377
"707","USC00188315",39.5228,-79.4131,621.8,"MD","SINES DEEP CREEK              ","   ","   ","     ",1928,2021,1928,2021,1928,2021,511,481,526
"710","USC00188557",38.9719,-76.3381,3,"MD","STEVENSVILLE 2SW              ","   ","   ","     ",1926,2021,1926,2021,1926,2021,323,334,233
"712","USC00190190",42.6178,-71.9158,337.7,"MA","ASHBURNHAM                    ","   ","   ","     ",1906,2022,1906,2022,1906,2022,84,84,578
"722","USC00195285",42.8319,-70.9153,16.8,"MA","NEWBURYPORT                   ","   ","   ","     ",1911,2016,1911,2016,1893,2022,46,45,589
"725","USC00196938",41.785,-70.9175,19.8,"MA","ROCHESTER                     ","   ","   ","     ",1900,2022,1900,2022,1900,2022,483,462,447
"726","USC00196988",42.7,-72.9,487.7,"MA","ROWE                          ","   ","   ","     ",1884,2015,1884,2015,1884,2015,6,6,6
"794","USC00211630",46.7053,-92.5239,385.6,"MN","CLOQUET                       ","   ","HCN","     ",1911,2021,1911,2021,1911,2021,571,579,573
"805","USC00213303",47.2436,-93.4975,399.3,"MN","GRAND RPDS FOREST LAB         ","   ","HCN","     ",1915,2021,1915,2021,1915,2021,584,572,566
"806","USC00213311",44.8136,-95.5517,283.5,"MN","GRANITE FALLS                 ","   ","   ","     ",1893,2021,1893,2021,1893,2021,63,63,334
"821","USC00215615",45.8775,-93.3147,310.3,"MN","MORA                          ","   ","HCN","     ",1904,2021,1904,2021,1904,2021,586,581,570
"822","USC00215638",45.59,-95.8744,347.5,"MN","MORRIS W CNTRL RSCH & OUTREACH","   ","HCN","     ",1886,2021,1886,2021,1886,2021,576,565,549
"833","USC00218618",47.0936,-94.5739,435.9,"MN","WALKER                        ","   ","HCN","     ",1907,2021,1907,2021,1907,2021,471,470,536
"834","USC00218692",44.0708,-93.5264,351.4,"MN","WASECA S RSCH & OUTREACH CTR  ","   ","   ","     ",1915,2021,1915,2021,1915,2021,570,578,581
"837","USC00219046",43.7639,-94.1661,338.3,"MN","WINNEBAGO                     ","   ","HCN","     ",1898,2021,1898,2021,1898,2021,563,573,561
"850","USC00221738",33.7367,-90.7444,42.1,"MS","CLEVELAND                     ","   ","   ","     ",1901,2021,1901,2021,1901,2021,398,402,523
"855","USC00222385",31.9544,-89.9328,101.8,"MS","D'LO 2 SW                     ","   ","   ","     ",1919,2017,1919,2017,1919,2017,456,510,573
"874","USC00229439",31.6772,-88.6708,61,"MS","WAYNESBORO 2 W                ","   ","HCN","     ",1892,2022,1892,2022,1892,2022,535,546,533
"885","USC00232318",40.4906,-92.3706,265.2,"MO","DOWNING                       ","   ","   ","     ",1920,2018,1920,2018,1893,2018,93,93,328
"900","USC00235027",37.3908,-93.9492,328.3,"MO","LOCKWOOD                      ","   ","HCN","     ",1904,2022,1904,2022,1903,2022,559,563,588
"905","USC00235708",39.635,-91.7233,225.9,"MO","MONROE CITY                   ","   ","   ","     ",1901,2022,1901,2022,1901,2022,344,343,514
"927","USC00240199",46.1308,-112.9333,1594.1,"MT","ANACONDA                      ","   ","HCN","     ",1901,2022,1901,2022,1894,2022,286,287,302
"948","USC00242550",48.7167,-111.4758,1012.9,"MT","DUNKIRK 19NNE                 ","   ","   ","     ",1922,2021,1922,2021,1912,2021,468,467,438
"960","USC00243749",47.4883,-111.2792,1068.3,"MT","GREAT FALLS 16ST              ","   ","   ","     ",1892,2019,1892,2019,1892,2019,152,158,339
"961","USC00243885",46.2461,-114.1681,1092.7,"MT","HAMILTON                      ","   ","HCN","     ",1895,2022,1895,2022,1895,2022,580,585,561
"968","USC00244558",48.3042,-114.2636,901.3,"MT","KALISPELL GLACIER AP          ","   ","HCN","72779",1896,2022,1896,2022,1896,2022,539,538,539
"970","USC00245020",47.9578,-115.2144,1048.5,"MT","LIBBY 32 SSE                  ","   ","   ","     ",1910,2021,1910,2021,1910,2021,513,511,543
"974","USC00245740",46.9244,-114.0911,974.4,"MT","MISSOULA 6 NW WFO             ","   ","   ","     ",1893,2022,1893,2022,1893,2022,442,447,468
"985","USC00247261",46.2986,-109.2561,1112.5,"MT","RYEGATE                       ","   ","   ","     ",1909,2022,1909,2022,1909,2022,431,459,220
"999","USC00250050",42.5522,-99.8556,765,"NE","AINSWORTH                     ","   ","   ","     ",1905,2021,1905,2021,1905,2021,595,595,578
"1029","USC00253365",40.9394,-100.1514,793.4,"NE","GOTHENBURG                    ","   ","HCN","     ",1894,2021,1894,2021,1894,2021,587,588,581
"1045","USC00255555",41.9178,-103.4842,1263.1,"NE","MINATARE DAM (USBR)           ","   ","   ","     ",1925,2022,1925,2022,1925,2022,257,266,274
"1051","USC00256075",41.0569,-100.7494,922,"NE","N PLATTE EXP FARM             ","   ","   ","     ",1917,2021,1917,2021,1917,2021,469,493,526
"1052","USC00256135",42.0644,-97.9667,533.1,"NE","OAKDALE                       ","   ","HCN","     ",1893,2022,1893,2022,1893,2022,555,575,587
"1066","USC00258410",40.2381,-96.0847,344.4,"NE","TABLE ROCK 4N                 ","   ","   ","     ",1931,2022,1930,2022,1893,2022,163,148,562
"1094","USC00268160",38.0694,-117.2355,1831.8,"NV","TONOPAH                       ","   ","   ","     ",1902,2022,1902,2022,1902,2022,196,210,195
"1096","USC00268988",41.1006,-114.9736,1737.4,"NV","WELLS                         ","   ","HCN","     ",1895,2022,1895,2022,1895,2022,492,490,493
"1115","USC00287850",39.5697,-75.4617,5.5,"NJ","SALEM                         ","   ","   ","     ",1888,2020,1888,2020,1876,2022,0,0,0
"1171","USC00300321",42.9328,-76.5447,234.7,"NY","AUBURN                        ","   ","HCN","     ",1897,2022,1897,2022,1897,2022,462,467,468
"1175","USC00300937",43.2161,-77.9528,151.8,"NY","BROCKPORT                     ","   ","HCN","     ",1893,2021,1893,2021,1893,2021,534,591,532
"1176","USC00301664",44.5842,-74.9572,176.8,"NY","COLTON 2 N                    ","   ","   ","     ",1936,2021,1936,2021,1934,2021,198,196,547
"1185","USC00304174",42.4492,-76.4492,292.6,"NY","ITHACA CORNELL UNIV           ","   ","HCN","     ",1893,2022,1893,2022,1893,2022,537,538,556
"1188","USC00304844",43.1878,-78.6092,185.9,"NY","LOCKPORT 4E                   ","   ","HCN","     ",1893,2021,1893,2021,1893,2021,534,536,496
"1197","USC00306196",42.0736,-78.4517,432.8,"NY","OLEAN                         ","   ","   ","     ",1927,2021,1927,2021,1909,2021,57,58,552
"1198","USC00306314",43.45,-76.5369,98.8,"NY","OSWEGO                        ","   ","HCN","     ",1926,2021,1926,2021,1926,2021,554,552,588
"1199","USC00306745",42.57,-78.0406,356,"NY","PORTAGEVILLE                  ","   ","   ","     ",1898,2015,1898,2015,1898,2021,58,79,513
"1208","USC00309047",42.0019,-76.525,257.6,"NY","WAVERLY                       ","   ","   ","     ",1893,2022,1893,2022,1893,2022,298,295,318
"1211","USC00310286",35.7083,-79.8381,265.2,"NC","ASHEBORO 2 W                  ","   ","   ","     ",1926,2021,1926,2021,1926,2021,581,592,553
"1223","USC00313638",35.64,-77.3983,9.8,"NC","GREENVILLE                    ","   ","   ","     ",1897,2021,1897,2021,1875,2021,499,501,543
"1231","USC00314970",35.8456,-80.26,231.6,"NC","LEXINGTON                     ","   ","   ","     ",1902,2021,1902,2021,1902,2021,587,588,585
"1236","USC00315356",35.8033,-82.6658,585.2,"NC","MARSHALL                      ","   ","HCN","     ",1898,2022,1898,2022,1898,2022,554,572,587
"1252","USC00319100",35.5525,-77.0722,3,"NC","WASHINGTON WWTP 4W            ","   ","   ","     ",1893,2021,1893,2021,1893,2021,124,125,554
"1253","USC00319123",35.7744,-83.0997,435.9,"NC","WATERVILLE 2                  ","   ","   ","     ",1930,2016,1930,2016,1930,2022,558,560,553
"1301","USC00332791",41.0461,-83.6622,234.1,"OH","FINDLAY WPCC                  ","   ","HCN","     ",1893,2021,1893,2021,1893,2021,548,549,545
"1304","USC00333375",40.1033,-84.6503,313.9,"OH","GREENVILLE WTP                ","   ","HCN","     ",1893,2022,1893,2022,1893,2022,566,567,575
"1315","USC00335747",40.0875,-82.4128,254.5,"OH","NEWARK WTR WKS                ","   ","   ","     ",1934,2022,1934,2022,1934,2022,578,584,570
"1323","USC00338794",39.5353,-83.4239,291.7,"OH","WASHINGTON COURT HOUSE        ","   ","   ","     ",1916,2022,1916,2022,1916,2022,528,530,529
"1327","USC00339312",40.7833,-81.9167,310.9,"OH","WOOSTER EXP STATION           ","   ","HCN","     ",1893,2021,1893,2021,1893,2021,562,556,554
"1357","USC00351407",45.6778,-121.8736,43.3,"OR","CASCADE LOCKS                 ","   ","   ","     ",1894,2022,1894,2022,1894,2022,187,170,220
"1360","USC00351862",44.6342,-123.19,68.6,"OR","CORVALLIS STATE UNIV          ","   ","HCN","     ",1893,2022,1893,2022,1893,2022,553,555,576
"1367","USC00352800",44.8358,-123.4525,210.3,"OR","FALLS CITY 2 SSW              ","   ","   ","     ",1897,2022,1897,2022,1896,2022,358,335,446
"1376","USC00354291",44.4233,-118.9594,933.6,"OR","JOHN DAY                      ","   ","   ","     ",1903,2022,1903,2022,1903,2022,513,543,583
"1379","USC00355204",44.0367,-123.8628,5.2,"OR","MAPLETON                      ","   ","   ","     ",1924,2022,1924,2022,1924,2022,181,184,413
"1383","USC00355734",45.4825,-120.7236,570,"OR","MORO                          ","   ","HCN","     ",1898,2022,1898,2022,1897,2022,555,564,560
"1400","USC00361920",40.2258,-77.1894,131.1,"PA","CARLISLE WTP                  ","   ","   ","     ",1873,2021,1873,2021,1840,2021,57,57,56
"1404","USC00363632",40.5517,-75.9911,112.5,"PA","HAMBURG                       ","   ","   ","     ",1894,2021,1894,2021,1894,2021,363,358,409
"1413","USC00367931",40.7831,-76.8617,128,"PA","SELINSGROVE 2 S               ","   ","HCN","     ",1894,2021,1894,2021,1893,2021,432,445,458
"1415","USC00368449",40.7933,-77.8672,356.6,"PA","STATE COLLEGE                 ","   ","HCN","     ",1893,2021,1893,2021,1893,2021,540,586,546
"1462","USC00392647",44.3186,-102.4683,806.2,"SD","ELM SPRINGS 3 ESE             ","   ","   ","     ",1923,2021,1923,2021,1923,2021,195,197,506
"1467","USC00393069",44.4106,-103.4769,1008.3,"SD","FT MEADE                      ","   ","   ","     ",1902,2021,1902,2021,1902,2021,507,555,484
"1471","USC00394007",43.4378,-103.4739,1085.1,"SD","HOT SPRINGS                   ","   ","HCN","     ",1894,2021,1894,2021,1894,2021,579,582,566
"1490","USC00397277",45.4528,-99.3358,559.3,"SD","ROSCOE                        ","   ","   ","     ",1935,2022,1935,2022,1934,2022,497,489,565
"1491","USC00397545",45.51,-100.0356,581.6,"SD","SELBY                         ","   ","   ","     ",1907,2022,1907,2022,1907,2022,408,401,502
"1498","USC00399070",44.0756,-98.5706,522.7,"SD","WESSINGTON SPRINGS            ","   ","   ","     ",1893,2021,1893,2021,1893,2021,508,504,586
"1508","USC00402108",35.5497,-89.7,117.3,"TN","COVINGTON 3 SW                ","   ","HCN","     ",1890,2018,1890,2018,1890,2018,582,577,582
"1512","USC00402680",35.9986,-89.4089,91.4,"TN","DYERSBURG                     ","   ","   ","     ",1895,2021,1895,2021,1893,2021,60,59,118
"1517","USC00404223",35.5567,-87.5414,298.7,"TN","HOHENWALD                     ","   ","   ","     ",1895,2022,1895,2022,1893,2022,314,312,370
"1534","USC00408886",35.3697,-84.3,277.4,"TN","TELLICO PLAINS                ","   ","   ","     ",1896,2022,1896,2022,1896,2022,309,306,470
"1553","USC00410984",33.5511,-97.8472,329.2,"TX","BOWIE                         ","   ","   ","     ",1897,2022,1897,2022,1897,2022,489,499,543
"1571","USC00412334",33.2331,-97.6225,295.7,"TX","DECATUR                       ","   ","   ","     ",1904,2022,1904,2022,1904,2022,77,78,447
"1578","USC00413257",30.8272,-100.1103,661.1,"TX","FT MCKAVETT                   ","   ","   ","     ",1877,2022,1877,2022,1877,2022,171,169,181
"1580","USC00413329",30.2392,-98.9089,513.6,"TX","FREDERICKSBURG                ","   ","   ","     ",1896,2021,1896,2021,1896,2021,562,573,537
"1622","USC00417951",31.5192,-94.1186,89.9,"TX","SAN AUGUSTINE                 ","   ","   ","     ",1909,2022,1909,2022,1909,2022,527,532,559
"1630","USC00418566",33.4792,-100.8761,700.1,"TX","SPUR                          ","   ","   ","     ",1911,2022,1911,2022,1911,2022,499,512,425
"1641","USC00420738",37.6131,-109.4847,1838.6,"UT","BLANDING                      ","   ","HCN","     ",1904,2022,1904,2022,1904,2022,592,583,554
"1653","USC00423348",40.6019,-112.5075,1386.8,"UT","GRANTSVILLE 2W                ","   ","   ","     ",1913,2022,1913,2022,1906,2022,176,190,562
"1661","USC00425402",39.2583,-111.6308,1749.6,"UT","MANTI                         ","   ","HCN","     ",1893,2022,1893,2022,1893,2022,579,594,579
"1672","USC00427064",40.2458,-111.6508,1392.9,"UT","PROVO BYU                     ","   ","   ","     ",1916,2022,1916,2022,1916,2022,245,247,250
"1691","USC00437054",44.42,-72.0194,213.4,"VT","SAINT JOHNSBURY               ","   ","HCN","72614",1894,2021,1894,2021,1894,2021,546,545,555
"1699","USC00442635",37.3875,-75.9744,3,"VA","EASTVILLE                     ","   ","   ","     ",1909,2015,1909,2015,1909,2015,296,337,327
"1702","USC00443272",36.6544,-80.9172,713.5,"VA","GALAX WTP                     ","   ","   ","     ",1907,2022,1907,2022,1907,2022,47,46,41
"1713","USC00447506",36.8894,-81.7711,528.2,"VA","SALTVILLE 1N                  ","   ","   ","     ",1894,2022,1894,2022,1895,2022,410,412,387
"1729","USC00451276",46.72,-122.9528,56.4,"WA","CENTRALIA                     ","   ","HCN","     ",1893,2021,1893,2021,1893,2021,575,571,572
"1735","USC00451630",48.5678,-117.9356,473.7,"WA","COLVILLE                      ","   ","HCN","     ",1899,2021,1899,2021,1899,2021,405,421,418
"1744","USC00452384",47.2422,-121.1869,661.4,"WA","EASTON                        ","   ","   ","     ",1905,2022,1905,2022,1905,2022,159,259,168
"1749","USC00453222",45.8081,-120.8428,499.9,"WA","GOLDENDALE                    ","   ","HCN","     ",1905,2022,1905,2022,1905,2022,584,575,557
"1757","USC00454679",47.0022,-118.5658,496.8,"WA","LIND 3 NE                     ","   ","   ","     ",1931,2022,1931,2022,1931,2022,590,593,589
"1765","USC00456096",48.6117,-122.8064,24.4,"WA","OLGA 2 SE                     ","   ","HCN","     ",1891,2016,1891,2016,1891,2016,577,578,587
"1837","USC00476200",43.1003,-88.5036,261.5,"WI","OCONOMOWOC WWTP               ","   ","   ","     ",1893,2021,1893,2021,1893,2021,540,552,568
"1864","USC00480432",42.5008,-108.7339,2383.8,"WY","ATLANTIC CITY                 ","   ","   ","     ",1897,2021,1897,2021,1897,2021,50,76,61
"1876","USC00482685",42.7467,-105.3603,1484.4,"WY","DOUGLAS 1 SE                  ","   ","   ","     ",1909,2016,1909,2016,1909,2016,518,529,446
"1891","USC00486440",43.8567,-110.5889,2074.2,"WY","MORAN 5WNW                    ","   ","HCN","     ",1911,2022,1911,2022,1911,2022,552,578,592
"1897","USC00487810",43.645,-104.8414,1292,"WY","ROCHELLE 7ENE                 ","   ","   ","     ",1928,2021,1928,2021,1927,2021,542,493,492
"1917","USC00505884",57.8425,-152.4586,39.6,"AK","MONASHKA CREEK DAM            ","   ","   ","     ",1909,2021,1909,2021,1909,2021,32,32,76
"1931","USW00012835",26.585,-81.8614,4.6,"FL","FT MYERS PAGE FLD AP          ","   ","HCN","     ",1892,2022,1892,2022,1892,2022,574,562,566
"1932","USW00012841",28.5453,-81.3331,32.9,"FL","ORLANDO EXECUTIVE AP          ","   ","   ","     ",1892,2022,1892,2022,1892,2022,441,407,382
"1934","USW00012919",25.9156,-97.4186,7,"TX","BROWNSVILLE                   ","   ","   ","72250",1898,2022,1898,2022,1898,2022,459,459,459
"1937","USW00013723",36.0969,-79.9433,271.3,"NC","PIEDMONT TRIAD INTL AP        ","   ","   ","72317",1928,2022,1928,2022,1928,2022,540,541,542
"1938","USW00013724",39.3792,-74.4242,3,"NJ","ATLANTIC CITY                 ","   ","HCN","     ",1873,2022,1873,2022,1873,2022,551,552,577
"1939","USW00013729",38.8853,-79.8528,603.2,"WV","ELKINS RANDOLPH CO AP         ","   ","   ","72417",1926,2022,1926,2022,1926,2022,543,538,535
"1940","USW00013734",39.4019,-77.9844,162.8,"WV","MARTINSBURG E WV RGNL AP      ","   ","HCN","     ",1926,2022,1926,2022,1926,2022,548,549,554
"1941","USW00013736",39.6428,-79.9164,378,"WV","MORGANTOWN HART FLD           ","   ","   ","     ",1877,2022,1877,2022,1872,2022,485,494,495
"1944","USW00013871",33.5872,-85.8556,181.1,"AL","ANNISTON METRO AP             ","   ","   ","     ",1903,2022,1903,2022,1903,2022,491,490,553
"1945","USW00013872",35.5953,-82.5567,682.1,"NC","ASHEVILLE                     ","   ","   ","     ",1876,2022,1876,2022,1876,2022,540,540,544
"1946","USW00013874",33.63,-84.4417,307.8,"GA","ATLANTA HARTSFIELD INTL AP    ","   ","   ","72219",1930,2022,1930,2022,1930,2022,541,541,541
"1947","USW00013876",33.5656,-86.745,187.5,"AL","BIRMINGHAM AP                 ","   ","   ","72228",1930,2022,1930,2022,1930,2022,540,540,541
"1948","USW00013891",35.8181,-83.9858,293.2,"TN","KNOXVILLE MCGHEE TYSON AP     ","   ","   ","72326",1910,2022,1910,2022,1910,2022,549,549,552
"1949","USW00013942",32.5156,-92.0406,24.1,"LA","MONROE RGNL AP                ","   ","   ","     ",1930,2022,1930,2022,1930,2022,502,506,481
"1950","USW00013966",33.9786,-98.4928,310,"TX","WICHITA FALLS MUNI AP         ","   ","   ","72351",1907,2022,1907,2022,1897,2022,544,544,544
"1951","USW00013970",30.5372,-91.1469,19.5,"LA","BATON ROUGE RYAN AP           ","   ","HCN","     ",1930,2022,1930,2022,1930,2022,579,560,558
"1952","USW00013972",32.3542,-95.4025,165.8,"TX","TYLER POUNDS FLD              ","   ","   ","     ",1883,2022,1883,2022,1883,2022,255,255,352
"1953","USW00013975",36.2967,-99.7689,667.8,"OK","GAGE AP                       ","   ","   ","74641",1904,2022,1904,2022,1904,2022,494,500,476
"1954","USW00013976",30.205,-91.9875,11.6,"LA","LAFAYETTE RGNL AP             ","   ","HCN","     ",1893,2022,1893,2022,1893,2022,556,567,594
"1957","USW00013981",37.6703,-95.4842,300.2,"KS","CHANUTE MARTIN JOHNSON AP     ","   ","   ","     ",1894,2022,1894,2022,1894,2022,583,576,575
"1958","USW00013984",39.5514,-97.6508,447.8,"KS","CONCORDIA MUNI AP             ","GSN","   ","72458",1885,2022,1885,2022,1885,2022,464,463,464
"1959","USW00013988",39.1208,-94.5969,226.2,"MO","KANSAS CITY DOWNTOWN AP       ","   ","   ","     ",1934,2022,1934,2022,1934,2022,521,522,527
"1961","USW00014734",40.6825,-74.1694,2.1,"NJ","NEWARK INTL AP                ","   ","   ","72502",1893,2022,1893,2022,1893,2022,540,540,540
"1962","USW00014739",42.3606,-71.0106,3.7,"MA","BOSTON LOGAN INTL AP          ","   ","   ","72509",1936,2022,1936,2022,1936,2022,540,540,542
"1965","USW00014762",40.3547,-79.9217,380.4,"PA","PITTSBURGH ALLEGHENY CO AP    ","   ","   ","     ",1935,2022,1935,2022,1935,2022,212,213,198
"1967","USW00014768",43.1167,-77.6767,162.5,"NY","ROCHESTER GTR INTL AP         ","   ","HCN","72529",1926,2022,1926,2022,1926,2022,541,541,540
"1973","USW00014845",43.5331,-84.0797,201.2,"MI","SAGINAW MBS INTL AP           ","   ","   ","     ",1898,2022,1898,2022,1898,2022,540,540,540
"1975","USW00014847",46.4794,-84.3572,220.1,"MI","SAULT STE MARIE SANDERSON FLD ","   ","   ","72734",1931,2022,1931,2022,1931,2022,540,541,543
"1976","USW00014848",41.7072,-86.3164,235.6,"IN","SOUTH BEND MICHIANA RGNL AP   ","   ","   ","72535",1893,2022,1893,2022,1893,2022,515,515,518
"1977","USW00014850",44.7408,-85.5825,188.4,"MI","TRAVERSE CITY CHERRY CPTL AP  ","   ","   ","     ",1896,2022,1896,2022,1896,2022,566,563,567
"1978","USW00014852",41.2544,-80.6739,359.7,"OH","YOUNGSTOWN RGNL AP            ","   ","   ","72525",1934,2022,1934,2022,1934,2022,547,540,568
"1979","USW00014860",42.08,-80.1825,222.5,"PA","ERIE INTL AP                  ","   ","HCN","72526",1926,2022,1926,2022,1926,2022,541,540,544
"1980","USW00014898",44.4983,-88.1111,207.9,"WI","GREEN BAY                     ","   ","   ","72645",1886,2022,1886,2022,1886,2022,540,540,540
"1981","USW00014914",46.9253,-96.8111,274.3,"ND","FARGO HECTOR INTL AP          ","   ","   ","72753",1891,2022,1891,2022,1891,2022,511,512,511
"1982","USW00014918",48.5614,-93.3981,360.6,"MN","INTL FALLS INTL AP            ","   ","   ","72747",1906,2022,1906,2022,1906,2022,466,466,466
"1984","USW00014925",43.9042,-92.4917,397.5,"MN","ROCHESTER INTL AP             ","   ","   ","72644",1893,2022,1893,2022,1893,2022,542,541,545
"1985","USW00014929",45.4558,-98.4131,396.8,"SD","ABERDEEN                      ","   ","HCN","72659",1893,2022,1893,2022,1893,2022,556,563,573
"1986","USW00014931",40.7833,-91.1253,210.9,"IA","BURLINGTON MUNI AP            ","   ","   ","72542",1897,2022,1897,2022,1897,2022,512,514,494
"1987","USW00014936",44.3981,-98.2231,390.1,"SD","HURON RGNL AP                 ","GSN","   ","72654",1881,2022,1881,2022,1881,2022,541,541,542
"1988","USW00014944",43.5878,-96.7289,435.9,"SD","SIOUX FALLS                   ","   ","   ","72651",1932,2022,1932,2022,1932,2022,544,542,542
"1989","USW00014946",44.9047,-97.1494,532.8,"SD","WATERTOWN RGNL AP             ","   ","HCN","     ",1893,2022,1893,2022,1893,2022,576,571,536
"1991","USW00023023",31.9433,-102.1889,874.2,"TX","MIDLAND ODESSA                ","   ","   ","72265",1930,2022,1930,2022,1930,2022,547,549,540
"1993","USW00023050",35.0419,-106.6156,1618.5,"NM","ALBUQUERQUE INTL AP           ","GSN","   ","72365",1931,2022,1931,2022,1931,2022,542,542,542
"1994","USW00023051",36.4486,-103.1539,1511.8,"NM","CLAYTON MUNI AIR PK           ","GSN","HCN","72360",1896,2022,1896,2022,1896,2022,584,584,553
"1996","USW00023066",39.1342,-108.54,1480.7,"CO","GRAND JUNCTION WALKER FLD     ","GSN","   ","72476",1900,2022,1900,2022,1900,2022,543,543,545
"1998","USW00023154",39.2953,-114.8467,1908.7,"NV","ELY YELLAND FLD AP            ","GSN","   ","72486",1893,2022,1893,2022,1888,2022,539,541,532
"2001","USW00023183",33.4278,-112.0039,337.4,"AZ","PHOENIX SKY HARBOR INTL AP    ","GSN","   ","72278",1933,2022,1933,2022,1933,2022,516,517,566
"2003","USW00023194",35.0281,-110.7208,1489.3,"AZ","WINSLOW MUNI AP               ","   ","   ","72374",1898,2022,1898,2022,1898,2022,576,578,551
"2005","USW00023258",37.6242,-120.9506,22.3,"CA","MODESTO CITY CO AP            ","   ","   ","     ",1927,2022,1927,2022,1906,2022,588,592,573
"2006","USW00023271",38.5556,-121.4169,11.6,"CA","SACRAMENTO 5 ESE              ","   ","   ","     ",1877,2022,1877,2022,1877,2022,554,553,552
"2007","USW00023272",37.7706,-122.4269,45.7,"CA","SAN FRANCISCO DWTN            ","   ","   ","     ",1921,2022,1921,2022,1921,2022,542,542,551
"2008","USW00024018",41.1519,-104.8061,1867.8,"WY","CHEYENNE                      ","   ","HCN","72564",1915,2022,1915,2022,1915,2022,542,542,542
"2013","USW00024036",47.0492,-109.4578,1263.4,"MT","LEWISTOWN MUNI AP             ","   ","   ","     ",1896,2022,1896,2022,1896,2022,568,580,542
"2014","USW00024121",40.8289,-115.7886,1533.1,"NV","ELKO RGNL AP                  ","   ","HCN","     ",1890,2022,1888,2022,1888,2022,540,540,540
"2015","USW00024128",40.9017,-117.8081,1309.4,"NV","WINNEMUCCA MUNI AP            ","GSN","HCN","72583",1877,2022,1877,2022,1877,2022,540,540,540
"2016","USW00024135",45.9647,-112.5006,1678.2,"MT","BUTTE BERT MOONEY AP          ","   ","   ","72774",1894,2022,1894,2022,1894,2022,572,572,561
"2017","USW00024137",48.6033,-112.3753,1169.8,"MT","CUT BANK MUNI AP              ","   ","HCN","72769",1903,2022,1903,2022,1903,2022,588,587,570
"2018","USW00024155",45.6906,-118.8528,461.8,"OR","PENDLETON                     ","GSN","   ","72688",1928,2022,1928,2022,1928,2022,540,541,534
"2019","USW00024157",47.6217,-117.5281,717.2,"WA","SPOKANE INTL AP               ","   ","HCN","72785",1889,2022,1889,2022,1889,2022,548,548,548
"2023","USW00024225",42.3811,-122.8722,395.3,"OR","MEDFORD ROGUE VLY AP          ","   ","   ","72597",1928,2022,1928,2022,1928,2022,540,540,540
"2024","USW00024231",43.2389,-123.3547,160,"OR","ROSEBURG RGNL AP              ","   ","   ","     ",1900,2022,1900,2022,1899,2022,356,359,330
"2025","USW00024232",44.905,-123.0011,62.5,"OR","SALEM MCNARY FLD              ","   ","   ","72694",1893,2022,1893,2022,1892,2022,540,540,541
"2026","USW00024284",43.4133,-124.2436,5.2,"OR","NORTH BEND RGNL AP            ","   ","HCN","     ",1902,2022,1902,2022,1902,2022,572,569,558
"2029","USW00025323",59.2433,-135.5094,4.6,"AK","HAINES AP                     ","   ","   ","     ",1911,2022,1911,2022,1911,2022,342,330,292
"2036","USW00026409",61.2169,-149.855,42.1,"AK","ANCHORAGE MERRILL FLD         ","   ","   ","     ",1916,2022,1916,2022,1916,2022,258,256,250
"2038","USW00026411",64.8039,-147.8761,131.7,"AK","FAIRBANKS INTL AP             ","GSN","   ","70261",1929,2022,1929,2022,1929,2022,540,540,540
"2048","USW00026617",64.5111,-165.44,4,"AK","NOME MUNI AP                  ","GSN","   ","70200",1900,2022,1900,2022,1900,2022,540,540,540
"2052","USW00092811",25.8064,-80.1336,0.3,"FL","MIAMI BEACH                   ","   ","   ","     ",1927,2021,1927,2021,1927,2021,541,560,565
"2053","USW00093033",32.3336,-104.2581,985.1,"NM","CARLSBAD CAVERN CITY AP       ","   ","   ","     ",1930,2022,1930,2022,1930,2022,510,510,481
"2054","USW00093134",34.0511,-118.2353,70.1,"CA","LOS ANGELES DWTN USC CAMPUS   ","   ","   ","     ",1906,2022,1906,2022,1906,2022,540,540,558
"2056","USW00093808",36.9647,-86.4239,160.9,"KY","BOWLING GREEN WARREN CO AP    ","   ","HCN","     ",1893,2022,1893,2022,1893,2022,555,556,524
"2058","USW00093820",38.0408,-84.6058,298.7,"KY","LEXINGTON BLUEGRASS AP        ","GSN","   ","72422",1872,2022,1872,2022,1872,2022,553,553,540
"2059","USW00093822",39.8447,-89.6839,181.1,"IL","SPRINGFIELD CAPITAL AP        ","   ","   ","72439",1901,2022,1901,2022,1901,2022,540,540,541
"2063","USW00093987",31.2361,-94.7544,87.8,"TX","LUFKIN ANGELINA CO AP         ","   ","   ","     ",1906,2022,1906,2022,1906,2022,544,542,547
"2066","USW00094014",48.1739,-103.6367,579.7,"ND","WILLISTON SLOULIN INTL AP     ","   ","   ","72767",1894,2019,1894,2019,1894,2019,544,543,544
"2067","USW00094728",40.7789,-73.9692,39.6,"NY","NEW YORK CNTRL PK TWR         ","   ","HCN","72506",1869,2022,1869,2022,1869,2022,540,540,540
