ID,LAT,LON,ELEV,ST,NAME,GSN,HCN,WMOID,TMAXf,TMAXl,TMINf,TMINl,PRCPf,PRCPl,SNOWf,SNOWl,SNWDf,SNWDl,natmax,natmin,naprcp,nasnow,nasnwd
USC00010402,31.1819,-87.4389,91.4,AL,ATMORE,"","",,1940,2022,1940,2022,1940,2022,1942,2020,1948,2020,363,366,285,277,265
USC00015635,34.4883,-87.2989,189.6,AL,MOULTON 2,"","",,1957,2022,1957,2022,1957,2022,1957,2022,1957,2022,356,355,345,431,432
USC00025494,35.0364,-111.0231,1687.1,AZ,METEOR CRATER,"","",,1962,2022,1962,2022,1962,2022,1962,2022,1962,2022,92,197,74,67,68
USC00025732,32.4486,-110.7544,2403.7,AZ,MT LEMMON FIRE DEPT,"","",,1958,2022,1958,2022,1958,2022,1958,2022,1958,2022,154,167,117,174,263
USC00026242,31.9353,-109.2186,1664.2,AZ,PARADISE,"","",,1906,2022,1906,2022,1906,2022,1906,2022,1906,2022,73,74,78,103,113
USC00027390,32.815,-109.6808,900.4,AZ,SAFFORD AG CTR,"",HCN,,1948,2022,1948,2022,1948,2022,1948,2022,1948,2022,364,358,352,357,440
USC00029464,33.7775,-112.5231,513,AZ,WITTMANN 1SE,"","",,1930,2020,1930,2020,1923,2020,1923,2020,1923,2020,137,137,119,80,80
USC00030286,33.6194,-94.0994,97.5,AR,ASHDOWN 4 SSE,"","",,1893,2022,1893,2022,1893,2022,1893,2020,1946,2020,86,89,353,377,471
USC00031838,35.2342,-93.1675,112.8,AR,DARDANELLE,"","",,1909,2022,1909,2022,1886,2022,1886,2022,1886,2022,366,365,336,548,573
USC00033132,36.2747,-91.5056,121.9,AR,HARDY,"","",,1897,2022,1897,2022,1897,2022,1897,2022,1897,2022,168,163,137,635,730
USC00033164,36.1956,-93.1061,345,AR,HARRISON,"","",,1891,2022,1891,2022,1891,2022,1891,2022,1900,2022,130,131,221,273,309
USC00035036,36.3458,-92.3939,243.8,AR,MTN HOME 1 NNW,"","",,1902,2022,1902,2022,1902,2022,1902,2022,1902,2022,360,360,352,999,1510
USC00038084,36.2936,-92.6878,364.2,AR,YELLVILLE 4 N,"","",,1964,2019,1964,2019,1944,2019,1944,2019,1944,2019,195,200,203,210,329
USC00044223,32.8489,-115.5667,-19.5,CA,IMPERIAL,"","",,1901,2021,1901,2021,1901,2021,1902,2021,1902,2021,343,343,368,309,311
USC00049073,37.5019,-120.8456,31.4,CA,TURLOCK #2,"","",,1894,2021,1894,2021,1893,2021,1894,2021,1893,2021,249,247,337,327,401
USC00049152,34.0697,-118.4428,131.1,CA,U C L A,"","",,1933,2022,1933,2022,1933,2022,1947,2022,1933,2022,346,345,345,376,408
USC00049351,39.8056,-120.1858,1508.8,CA,VINTON,"","",,1950,2019,1950,2019,1950,2019,1950,2019,1950,2019,137,106,372,418,1381
USC00050109,40.155,-103.1417,1384.4,CO,AKRON 4 E,"","",,1893,2022,1893,2022,1893,2022,1893,2022,1905,2022,299,298,367,407,557
USC00050214,39.4992,-108.3808,1718.2,CO,ALTENBERN,"","",,1958,2022,1958,2022,1947,2022,1947,2022,1947,2022,360,364,350,937,1116
USC00050848,39.9919,-105.2667,1671.5,CO,BOULDER,"",HCN,,1893,2022,1893,2022,1893,2022,1893,2022,1897,2022,353,361,352,349,452
USC00052281,39.6261,-106.0353,2763,CO,DILLON 1 E,"",HCN,,1910,2022,1910,2022,1893,2022,1893,2022,1909,2022,355,359,345,356,422
USC00058204,37.9492,-107.8736,2635.3,CO,TELLURIDE 4WNW,"",HCN,,1900,2022,1900,2022,1900,2022,1900,2022,1901,2022,351,353,346,347,530
USC00058756,40.7442,-106.2792,2455.5,CO,WALDEN,"","",,1897,2022,1897,2022,1897,2022,1897,2022,1897,2022,372,364,348,365,472
USC00059275,37.5217,-108.755,2113.2,CO,YELLOW JACKET 2W,"","",,1962,2022,1962,2022,1962,2022,1962,2022,1962,2021,322,321,296,346,1893
USC00063207,41.3503,-72.0378,12.2,CT,GROTON,"",HCN,,1957,2021,1957,2021,1948,2021,1948,2021,1948,2021,329,335,339,629,635
USC00065077,41.4078,-72.9028,54.9,CT,MT CARMEL,"","",,1936,2020,1936,2020,1936,2020,1936,2020,1936,2020,234,234,239,347,317
USC00067970,41.1247,-73.5475,57.9,CT,STAMFORD 5 N,"",HCN,,1955,2021,1955,2021,1955,2021,1955,2021,1955,2021,322,324,343,349,1273
USC00093060,34.1408,-82.855,164.6,GA,ELBERTON 2 N,"","",,1891,2022,1891,2022,1891,2022,1892,2022,1899,2022,357,350,352,1156,1186
USC00094204,31.8878,-82.5808,76.2,GA,HAZLEHURST,"","",,1918,2015,1918,2015,1918,2015,1921,2015,1948,2015,189,221,170,146,146
USC00095204,33.7764,-82.4714,138.4,GA,LINCOLNTON,"","",,1892,2021,1892,2021,1893,2021,1945,2021,1948,2021,49,30,288,271,327
USC00097087,32.0467,-84.3711,152.4,GA,PLAINS SW GA EXP STN,"","",,1956,2021,1956,2021,1956,2021,1956,2021,1956,2021,360,366,353,323,408
USC00102667,42.4261,-112.1253,1482.9,ID,DOWNEY,"","",,1895,2022,1895,2022,1895,2022,1895,2022,1901,2022,26,37,24,25,24
USC00105275,42.1231,-111.3133,1809,ID,LIFTON PUMPING STN,"",HCN,,1919,2022,1919,2022,1919,2022,1919,2022,1919,2022,358,358,366,529,554
USC00106152,46.7281,-116.9558,810.8,ID,MOSCOW U OF I,"",HCN,,1893,2022,1893,2022,1893,2022,1893,2022,1894,2022,353,346,350,351,484
USC00106424,46.2325,-116.243,990,ID,NEZPERCE,"","",,1901,2020,1901,2020,1901,2020,1901,2020,1901,2020,343,341,364,417,403
USC00107208,42.8917,-112.4086,1472.8,ID,POCATELLO 2 NE,"","",,1899,2017,1899,2017,1899,2017,1899,2017,1899,2017,161,161,163,213,202
USC00108818,43.8867,-111.7367,1501.1,ID,SUGAR CITY,"","",,1907,2022,1907,2022,1907,2022,1907,2022,1909,2022,159,171,361,200,328
USC00109950,44.9628,-115.4961,1539.2,ID,YELLOWPINE,"","",,1926,2021,1926,2021,1926,2022,1926,2022,1926,2022,162,163,113,134,262
USC00111329,39.2975,-87.9747,189,IL,CASEY,"","",,1893,2021,1893,2021,1893,2021,1893,2021,1896,2021,134,140,274,759,672
USC00111577,41.7372,-87.7775,189,IL,CHICAGO MIDWAY AP 3SW,"","",72534,1928,2021,1928,2021,1928,2021,1928,2021,1928,2021,364,368,361,382,379
USC00112687,39.1181,-88.6244,190.5,IL,EFFINGHAM 3SW,"","",,1893,2020,1893,2020,1893,2020,1893,2020,1899,2020,342,345,333,663,764
USC00112931,38.3806,-88.3264,131.1,IL,FAIRFIELD RADIO WFIW,"","",,1896,2022,1896,2022,1895,2022,1895,2021,1895,2021,372,371,355,1465,1776
USC00114355,41.4256,-91.0094,167.6,IL,ILLINOIS CITY DAM 16,"","",,1943,2022,1943,2022,1943,2022,1943,2022,1943,2022,112,111,342,657,747
USC00114442,39.7347,-90.1978,185.9,IL,JACKSONVILLE 2E,"",HCN,,1895,2021,1895,2021,1895,2021,1895,2021,1895,2021,349,360,372,465,534
USC00115372,41.3286,-88.7533,149.4,IL,MARSEILLES LOCK,"","",,1949,2021,1949,2021,1941,2021,1941,2021,1941,2021,220,213,362,613,714
USC00115825,41.3708,-88.4336,159.7,IL,MORRIS 1 NW,"","",,1912,2021,1912,2021,1911,2021,1911,2021,1911,2021,228,231,205,217,282
USC00117345,39.0061,-87.7769,163.1,IL,ROBINSON,"","",,1895,2021,1895,2021,1895,2021,1895,2021,1901,2021,183,189,188,682,661
USC00117636,38.6403,-88.9458,167.6,IL,SALEM,"","",72433,1932,2022,1932,2022,1915,2022,1915,2022,1915,2022,363,362,351,947,1105
USC00120852,38.0303,-87.2736,121.9,IN,BOONVILLE 1S,"","",,1897,2022,1897,2022,1897,2022,1897,2022,1928,2022,173,173,173,361,317
USC00123082,40.2986,-86.5067,251.2,IN,FRANKFORT DISPOSAL,"","",,1914,2021,1914,2021,1914,2021,1914,2021,1914,2021,369,372,368,511,723
USC00124657,41.3053,-86.6286,210.3,IN,KNOX WWTP,"","",,1897,2022,1897,2022,1897,2022,1897,2022,1905,2022,157,165,217,257,557
USC00125117,40.7478,-86.3878,182.9,IN,LOGANSPORT CICOTT ST,"","",,1893,2022,1893,2022,1891,2022,1891,2022,1904,2022,189,187,370,397,436
USC00126580,38.8878,-86.5519,198.7,IN,OOLITIC PURDUE EX FM,"",HCN,,1893,2021,1893,2021,1893,2021,1893,2021,1902,2021,354,353,365,383,514
USC00130608,42.2611,-90.423,183.8,IA,BELLEVUE L&D 12,"","",,1941,2022,1941,2022,1941,2022,1941,2022,1941,2022,363,357,371,429,434
USC00131319,42.0497,-91.5881,247.8,IA,CEDAR RAPIDS #1,"","",,1892,2022,1892,2022,1892,2022,1892,2022,1895,2022,351,349,351,370,380
USC00133517,42.7858,-91.0958,188.4,IA,GUTTENBERG L&D 10,"","",,1937,2021,1937,2021,1937,2021,1938,2021,1938,2021,344,349,347,483,598
USC00136766,43.09,-91.5581,355.1,IA,POSTVILLE,"","",,1901,2021,1897,2021,1893,2021,1893,2021,1896,2021,258,199,219,524,507
USC00137594,43.1803,-95.8533,432.8,IA,SHELDON,"","",,1899,2019,1899,2019,1899,2022,1899,2022,1899,2022,340,341,339,342,345
USC00137844,43.1653,-95.1467,404.2,IA,SPENCER 1 N,"","",72650,1895,2022,1895,2022,1895,2022,1895,2022,1895,2022,336,338,344,410,549
USC00137859,43.4231,-95.1394,432.8,IA,SPIRIT LAKE,"","",,1893,2022,1893,2022,1893,2022,1893,2022,1899,2022,136,136,136,192,348
USC00138693,42.5736,-95.7181,350.5,IA,WASHTA,"","",,1905,2019,1905,2019,1897,2019,1897,2019,1900,2019,128,170,286,342,327
USC00141179,39.8775,-98.3036,503.2,KS,BURR OAK 1N,"","",,1900,2020,1900,2020,1900,2020,1900,2020,1900,2020,69,69,183,334,326
USC00141435,38.9644,-97.0119,338.6,KS,CHAPMAN,"","",,1904,2021,1904,2021,1904,2021,1904,2021,1904,2021,98,96,372,915,1770
USC00141699,39.3925,-101.0689,966.2,KS,COLBY 1SW,"","",,1957,2022,1957,2022,1950,2022,1957,2022,1957,2022,350,359,350,818,980
USC00142459,38.7297,-98.225,477.9,KS,ELLSWORTH,"",HCN,,1904,2021,1904,2021,1904,2021,1904,2021,1904,2021,343,349,328,991,1041
USC00143527,38.8586,-99.3358,612.6,KS,HAYS 1 S,"",HCN,,1892,2022,1892,2022,1892,2022,1893,2022,1900,2022,343,345,371,603,751
USC00143554,38.6003,-100.6197,868.7,KS,HEALY,"","",,1901,2022,1901,2022,1901,2022,1901,2022,1901,2022,366,358,364,374,444
USC00146076,38.6361,-95.8031,333.5,KS,OSAGE CITY,"","",,1896,2022,1896,2022,1896,2022,1897,2022,1897,2022,142,142,314,373,677
USC00147271,38.4747,-100.9175,906.5,KS,SCOTT CITY,"",HCN,,1895,2022,1895,2022,1895,2022,1895,2022,1895,2022,355,361,360,1004,914
USC00147542,39.7772,-98.7783,554.7,KS,SMITH CTR,"",HCN,,1910,2021,1912,2021,1910,2021,1910,2021,1910,2021,352,352,346,352,346
USC00148235,38.4661,-101.7731,1107.6,KS,TRIBUNE 1W,"","",,1893,2022,1893,2022,1893,2022,1893,2022,1900,2022,353,356,356,690,806
USC00148535,38.9111,-101.5853,1009.2,KS,WALLACE,"","",,1903,2022,1903,2022,1893,2022,1892,2022,1893,2022,86,83,82,82,83
USC00157158,38.0969,-83.1189,231.6,KY,SANDY HOOK 1NE,"","",,1893,2017,1893,2017,1893,2017,1893,2017,1894,2017,127,174,123,85,85
USC00158714,38.6408,-84.5592,295.4,KY,WILLIAMSTOWN,"",HCN,,1902,2015,1902,2015,1902,2016,1902,2016,1902,2016,356,353,341,329,373
USC00165090,32.8067,-91.173,30.5,LA,LAKE PROVIDENCE,"","",,1893,2018,1893,2018,1893,2019,1893,2019,1893,2018,368,361,362,439,485
USC00172765,44.6894,-70.1564,123.4,ME,FARMINGTON,"",HCN,,1893,2021,1893,2021,1893,2021,1893,2021,1902,2021,348,350,346,526,785
USC00175675,44.0436,-69.5375,64.9,ME,NEWCASTLE,"","",,1965,2021,1965,2021,1965,2021,1965,2021,1965,2021,342,342,367,342,433
USC00181125,39.1911,-77.0069,100.6,MD,BRIGHTON DAM,"","",,1948,2017,1948,2017,1948,2017,1948,2017,1948,2017,175,147,276,328,443
USC00181790,39.6403,-77.6978,162.2,MD,HAGERSTOWN 1 E,"","",,1899,2021,1899,2021,1899,2021,1899,2021,1901,2021,57,58,63,60,72
USC00188315,39.5228,-79.4131,621.8,MD,SINES DEEP CREEK,"","",,1928,2021,1928,2021,1928,2021,1928,2021,1928,2021,262,262,330,628,518
USC00188557,38.9719,-76.3381,3,MD,STEVENSVILLE 2SW,"","",,1926,2021,1926,2021,1926,2021,1926,2021,1927,2021,42,42,51,43,44
USC00190562,42.2797,-72.3483,167.6,MA,BELCHERTOWN,"","",,1942,2022,1942,2022,1942,2022,1942,2022,1947,2022,66,67,371,561,1112
USC00190736,42.2122,-71.1136,190.5,MA,BLUE HILL COOP,"",HCN,,1893,2022,1893,2022,1893,2022,1893,2022,1893,2022,345,346,345,391,384
USC00193624,42.2269,-70.9125,10.7,MA,HINGHAM,"","",,1960,2022,1960,2022,1960,2022,1960,2022,1960,2022,348,347,366,350,415
USC00195285,42.8319,-70.9153,16.8,MA,NEWBURYPORT,"","",,1911,2016,1911,2016,1893,2022,1893,2022,1911,2022,46,45,361,589,736
USC00195984,41.9928,-71.1667,29,MA,NORTON W,"","",,1913,2022,1913,2022,1913,2022,1917,2022,1949,2022,290,293,304,398,324
USC00196783,42.5239,-71.125,33.5,MA,READING,"",HCN,,1960,2019,1960,2019,1960,2019,1960,2019,1960,2019,343,343,343,467,464
USC00196938,41.785,-70.9175,19.8,MA,ROCHESTER,"","",,1900,2022,1900,2022,1900,2022,1900,2022,1901,2022,366,372,355,619,837
USC00200230,42.2981,-83.6639,247.8,MI,ANN ARBOR U OF MICH,"",HCN,,1891,2022,1891,2022,1891,2022,1891,2022,1896,2022,364,368,350,516,517
USC00200925,45.1672,-84.9139,221.9,MI,BOYNE FALLS,"","",,1961,2022,1961,2022,1961,2022,1961,2022,1961,2022,356,370,359,374,389
USC00201361,43.5861,-83.1805,212.8,MI,CASS CITY 1 SSW,"","",,1961,2022,1961,2022,1959,2022,1959,2022,1959,2022,231,231,314,1021,1405
USC00203429,43.2025,-85.2422,268.8,MI,GREENVILLE 2 NNE,"","",,1912,2022,1912,2022,1912,2022,1913,2022,1913,2022,344,344,346,823,469
USC00207812,46.0556,-88.6275,442,MI,STAMBAUGH 2SSE,"",HCN,,1922,2022,1922,2022,1922,2022,1922,2022,1922,2022,355,362,358,869,607
USC00210515,48.7094,-94.5853,333.5,MN,BAUDETTE,"",HCN,,1908,2022,1908,2022,1908,2022,1908,2022,1908,2022,333,358,346,666,3061
USC00211263,44.7183,-96.2697,368.8,MN,CANBY,"","",,1916,2021,1916,2021,1916,2021,1916,2021,1916,2021,362,369,350,404,518
USC00211630,46.7053,-92.5239,385.6,MN,CLOQUET,"",HCN,,1911,2021,1911,2021,1911,2021,1911,2021,1911,2021,360,362,358,369,369
USC00212881,45.3317,-92.8983,275.8,MN,FOREST LAKE 5NE,"","",,1958,2021,1958,2021,1958,2022,1958,2022,1958,2021,363,368,365,440,416
USC00213303,47.2436,-93.4975,399.3,MN,GRAND RPDS FOREST LAB,"",HCN,,1915,2021,1915,2021,1915,2021,1948,2021,1948,2021,346,347,348,374,1794
USC00213311,44.8136,-95.5517,283.5,MN,GRANITE FALLS,"","",,1893,2021,1893,2021,1893,2021,1893,2021,1896,2021,63,63,301,384,877
USC00214418,43.8658,-91.31,197.2,MN,LA CRESCENT DAM 7,"","",,1939,2021,1939,2021,1939,2021,1939,2021,1939,2021,257,258,362,435,539
USC00215488,44.16,-91.8122,204.2,MN,MINNESOTA CITY DAM 5,"","",,1939,2021,1939,2021,1939,2021,1939,2021,1939,2021,142,143,352,512,818
USC00215638,45.59,-95.8744,347.5,MN,MORRIS W CNTRL RSCH & OUTREACH,"",HCN,,1886,2021,1886,2021,1886,2021,1907,2021,1948,2021,344,344,344,432,446
USC00219046,43.7639,-94.1661,338.3,MN,WINNEBAGO,"",HCN,,1898,2021,1898,2021,1898,2021,1898,2021,1899,2021,353,368,357,513,586
USC00219072,44.0875,-91.6703,202.1,MN,WINONA DAM 5 A,"","",,1939,2021,1939,2021,1939,2021,1939,2021,1939,2021,246,231,369,555,609
USC00221738,33.7367,-90.7444,42.1,MS,CLEVELAND,"","",,1901,2021,1901,2021,1901,2021,1901,2021,1901,2021,258,260,292,286,351
USC00228445,33.4311,-90.9108,38.7,MS,STONEVILLE EXP STN,"","",,1930,2019,1930,2019,1914,2019,1915,2019,1920,2019,336,329,341,365,527
USC00230051,40.2486,-94.3308,266.7,MO,ALBANY,"","",,1941,2021,1941,2021,1905,2021,1905,2021,1923,2021,207,194,266,420,472
USC00232318,40.4906,-92.3706,265.2,MO,DOWNING,"","",,1920,2018,1920,2018,1893,2018,1893,2018,1900,2018,55,55,270,178,229
USC00235307,37.3233,-92.9828,431,MO,MARSHFIELD 4 WSW,"","",,1908,2021,1908,2021,1908,2021,1908,2021,1908,2021,367,366,349,907,973
USC00235708,39.635,-91.7233,225.9,MO,MONROE CITY,"","",,1901,2022,1901,2022,1901,2022,1901,2022,1901,2022,323,325,255,309,503
USC00240056,47.0092,-111.6742,1529.2,MT,ADEL,"","",,1898,2021,1898,2021,1898,2021,1898,2021,1898,2021,59,58,112,499,447
USC00240199,46.1308,-112.9333,1594.1,MT,ANACONDA,"",HCN,,1901,2022,1901,2022,1894,2022,1894,2022,1901,2022,286,287,302,302,440
USC00241044,45.6622,-111.0464,1497.5,MT,BOZEMAN MONTANA STATE UNIV,"",HCN,,1892,2021,1892,2021,1892,2021,1892,2021,1892,2021,363,370,359,386,484
USC00242550,48.7167,-111.4758,1012.9,MT,DUNKIRK 19NNE,"","",,1922,2021,1922,2021,1912,2021,1912,2021,1912,2021,233,234,206,205,245
USC00243749,47.4883,-111.2792,1068.3,MT,GREAT FALLS 16ST,"","",,1892,2019,1892,2019,1892,2019,1892,2019,1896,2019,70,71,291,203,336
USC00243885,46.2461,-114.1681,1092.7,MT,HAMILTON,"",HCN,,1895,2022,1895,2022,1895,2022,1898,2022,1898,2022,360,363,362,755,1499
USC00244558,48.3042,-114.2636,901.3,MT,KALISPELL GLACIER AP,"",HCN,72779,1896,2022,1896,2022,1896,2022,1896,2022,1899,2022,346,346,347,315,319
USC00245740,46.9244,-114.0911,974.4,MT,MISSOULA 6 NW WFO,"","",,1893,2022,1893,2022,1893,2022,1893,2022,1902,2022,103,107,108,104,111
USC00245961,45.2436,-109.7311,1994.6,MT,MYSTIC LAKE,"","",,1924,2022,1924,2022,1924,2022,1924,2022,1924,2022,370,365,371,363,509
USC00247500,48.5133,-111.855,1013.5,MT,SHELBY,"","",,1950,2021,1950,2021,1950,2021,1950,2021,1950,2021,210,207,226,264,573
USC00250050,42.5522,-99.8556,765,NE,AINSWORTH,"","",,1905,2021,1905,2021,1905,2021,1905,2021,1906,2021,354,349,346,412,445
USC00250640,40.1306,-99.8278,654.7,NE,BEAVER CITY,"",HCN,,1893,2021,1893,2021,1893,2021,1893,2021,1897,2021,353,356,358,370,361
USC00251145,41.6681,-103.1039,1117.4,NE,BRIDGEPORT,"",HCN,,1897,2022,1897,2022,1897,2022,1897,2022,1897,2022,357,346,341,434,473
USC00251345,41.7769,-99.1433,663.2,NE,BURWELL,"","",,1948,2021,1948,2021,1948,2021,1948,2021,1948,2021,332,346,326,444,576
USC00253185,41.4514,-97.7644,484.6,NE,GENOA 2 W,"",HCN,,1893,2021,1893,2021,1893,2021,1893,2021,1903,2021,345,346,345,386,410
USC00254035,41.7175,-97.0031,463.3,NE,HOWELLS,"","",,1940,2022,1940,2022,1934,2022,1936,2022,1938,2022,147,145,320,295,541
USC00256040,41.4969,-98.7714,597.7,NE,N LOUP,"",HCN,,1895,2021,1893,2021,1893,2021,1895,2021,1900,2021,316,318,340,346,441
USC00256135,42.0644,-97.9667,533.1,NE,OAKDALE,"",HCN,,1893,2022,1893,2022,1893,2022,1893,2022,1900,2022,354,350,345,1070,882
USC00256385,41.4014,-102.3464,1033.3,NE,OSHKOSH,"","",,1913,2021,1913,2021,1913,2021,1913,2021,1913,2021,371,370,361,840,908
USC00258410,40.2381,-96.0847,344.4,NE,TABLE ROCK 4N,"","",,1931,2022,1930,2022,1893,2022,1893,2022,1898,2022,163,148,362,697,671
USC00259200,41.845,-96.7142,399.3,NE,W PT,"","",,1892,2022,1892,2022,1890,2022,1890,2022,1890,2022,371,364,365,412,588
USC00268160,38.0694,-117.2355,1831.8,NV,TONOPAH,"","",,1902,2022,1902,2022,1902,2022,1902,2022,1902,2022,46,47,47,46,46
USC00268988,41.1006,-114.9736,1737.4,NV,WELLS,"",HCN,,1895,2022,1895,2022,1895,2022,1895,2022,1899,2022,268,274,268,319,305
USC00287850,39.5697,-75.4617,5.5,NJ,SALEM,"","",,1888,2020,1888,2020,1876,2022,1876,2022,1905,2022,0,0,0,0,0
USC00287936,39.4872,-75.22,31.7,NJ,SEABROOK FARMS,"","",,1963,2021,1963,2021,1949,2021,1949,2021,1949,2021,363,360,355,1079,1254
USC00294366,35.3886,-106.5439,1642.3,NM,JEMEZ DAM,"","",,1953,2022,1953,2022,1953,2022,1953,2022,1953,2022,142,141,127,130,177
USC00298535,32.2822,-106.7597,1184.5,NM,STATE UNIV,"",HCN,,1959,2022,1959,2022,1959,2022,1959,2022,1959,2022,351,360,348,459,477
USC00299284,35.36,-103.4433,1165.9,NM,UTE DAM,"","",,1965,2019,1965,2019,1965,2019,1965,2019,1965,2019,223,229,175,355,244
USC00300321,42.9328,-76.5447,234.7,NY,AUBURN,"",HCN,,1897,2022,1897,2022,1897,2022,1897,2022,1897,2022,255,261,260,267,291
USC00300343,42.9203,-77.7558,166.1,NY,AVON,"","",,1895,2021,1895,2021,1895,2021,1895,2021,1900,2021,250,250,365,380,406
USC00300937,43.2161,-77.9528,151.8,NY,BROCKPORT,"",HCN,,1893,2021,1893,2021,1893,2021,1899,2021,1899,2021,267,364,285,422,714
USC00301664,44.5842,-74.9572,176.8,NY,COLTON 2 N,"","",,1936,2021,1936,2021,1934,2021,1934,2021,1935,2021,36,33,336,447,689
USC00304174,42.4492,-76.4492,292.6,NY,ITHACA CORNELL UNIV,"",HCN,,1893,2022,1893,2022,1893,2022,1893,2022,1899,2022,340,340,361,378,379
USC00304844,43.1878,-78.6092,185.9,NY,LOCKPORT 4E,"",HCN,,1893,2021,1893,2021,1893,2021,1893,2021,1900,2021,307,308,294,242,259
USC00305426,41.7681,-74.155,379.5,NY,MOHONK LAKE,"",HCN,,1896,2021,1896,2021,1896,2021,1896,2021,1900,2021,347,349,351,721,562
USC00306196,42.0736,-78.4517,432.8,NY,OLEAN,"","",,1927,2021,1927,2021,1909,2021,1909,2021,1916,2021,57,58,354,359,401
USC00306867,43.5697,-76.1164,121.6,NY,PULASKI,"","",,1948,2021,1948,2021,1948,2021,1948,2021,1948,2021,308,316,283,130,122
USC00307742,41.3325,-73.8369,140.8,NY,SHRUB OAK,"","",,1950,2021,1950,2021,1950,2022,1950,2022,1950,2022,50,50,54,54,64
USC00308455,44.2756,-75.8369,110,NY,THERESA 4NW,"","",,1941,2021,1941,2021,1941,2021,1941,2021,1941,2021,0,0,229,153,241
USC00309047,42.0019,-76.525,257.6,NY,WAVERLY,"","",,1893,2022,1893,2022,1893,2022,1893,2022,1897,2022,298,295,318,681,807
USC00311975,35.4111,-80.5833,213.4,NC,CONCORD,"","",,1891,2022,1891,2022,1891,2022,1933,2022,1934,2022,363,367,349,432,484
USC00313638,35.64,-77.3983,9.8,NC,GREENVILLE,"","",,1897,2021,1897,2021,1875,2021,1875,2021,1914,2021,370,367,371,571,688
USC00315356,35.8033,-82.6658,585.2,NC,MARSHALL,"",HCN,,1898,2022,1898,2022,1898,2022,1898,2022,1898,2022,358,357,360,1101,1094
USC00315838,35.7297,-81.6728,359.7,NC,MORGANTON,"",HCN,,1893,2022,1897,2022,1880,2022,1894,2022,1902,2022,354,355,357,668,771
USC00315890,36.4961,-80.6522,329.2,NC,MT AIRY 2 W,"",HCN,,1893,2022,1893,2022,1893,2022,1893,2022,1893,2022,352,351,361,673,816
USC00316349,35.1075,-75.9872,1.2,NC,OCRACOKE,"","",,1957,2021,1957,2021,1957,2021,1957,2021,1957,2021,250,307,244,324,298
USC00319123,35.7744,-83.0997,435.9,NC,WATERVILLE 2,"","",,1930,2016,1930,2016,1930,2022,1930,2016,1930,2016,359,357,347,445,635
USC00319147,35.4867,-82.9681,810.2,NC,WAYNESVILLE 1 E,"",HCN,,1894,2022,1894,2022,1894,2022,1894,2022,1894,2022,347,347,357,826,993
USC00319675,36.1306,-80.5481,266.7,NC,YADKINVILLE 6 E,"","",,1957,2022,1957,2022,1940,2022,1945,2022,1948,2022,356,351,349,356,404
USC00329430,48.1375,-103.7372,641.6,ND,WILLISTON EXP FARM,"","",,1956,2021,1956,2021,1956,2021,1956,2021,1956,2021,365,364,367,902,1050
USC00332044,40.4389,-82.3042,295.7,OH,DANVILLE 2 W,"","",,1963,2022,1963,2022,1963,2022,1963,2022,1963,2022,341,354,360,565,551
USC00332791,41.0461,-83.6622,234.1,OH,FINDLAY WPCC,"",HCN,,1893,2021,1893,2021,1893,2021,1893,2021,1900,2021,351,349,348,1034,916
USC00335505,41.2986,-80.7647,277.4,OH,MOSQUITO CREEK LAKE,"","",,1949,2022,1949,2022,1944,2022,1944,2022,1944,2022,66,66,352,653,672
USC00336405,40.9461,-83.9614,234.7,OH,PANDORA,"","",,1949,2022,1949,2022,1949,2022,1949,2022,1949,2022,347,347,344,356,455
USC00338794,39.5353,-83.4239,291.7,OH,WASHINGTON COURT HOUSE,"","",,1916,2022,1916,2022,1916,2022,1916,2022,1916,2022,330,331,331,502,497
USC00339312,40.7833,-81.9167,310.9,OH,WOOSTER EXP STATION,"",HCN,,1893,2021,1893,2021,1893,2021,1900,2021,1901,2021,351,346,347,1116,903
USC00346386,35.1808,-97.4378,343.8,OK,NORMAN 3SSE,"","",,1894,2019,1894,2019,1894,2019,1895,2019,1897,2019,187,190,312,393,474
USC00351407,45.6778,-121.8736,43.3,OR,CASCADE LOCKS,"","",,1894,2022,1894,2022,1894,2022,1896,2022,1897,2022,18,18,39,26,25
USC00351682,45.205,-123.8925,3.7,OR,CLOVERDALE,"","",,1940,2022,1940,2022,1940,2022,1940,2022,1940,2022,372,355,356,498,514
USC00351862,44.6342,-123.19,68.6,OR,CORVALLIS STATE UNIV,"",HCN,,1893,2022,1893,2022,1893,2022,1893,2022,1902,2022,351,352,349,468,551
USC00352292,44.7242,-122.2547,371.9,OR,DETROIT DAM,"","",,1954,2022,1954,2022,1954,2022,1954,2022,1954,2022,360,356,351,687,615
USC00352800,44.8358,-123.4525,210.3,OR,FALLS CITY 2 SSW,"","",,1897,2022,1897,2022,1896,2022,1896,2022,1898,2022,124,127,178,232,231
USC00353445,42.4239,-123.3219,284.1,OR,GRANTS PASS,"",HCN,,1893,2022,1893,2022,1893,2022,1893,2022,1898,2022,372,368,354,1048,1101
USC00354811,44.1014,-122.6886,205.7,OR,LEABURG 1 SW,"","",,1933,2022,1933,2022,1933,2022,1934,2022,1935,2022,357,364,353,645,729
USC00355734,45.4825,-120.7236,570,OR,MORO,"",HCN,,1898,2022,1898,2022,1897,2022,1897,2022,1917,2022,345,344,352,1050,1033
USC00358536,43.275,-122.4497,627.9,OR,TOKETEE FALLS,"","",,1953,2022,1953,2022,1953,2022,1953,2022,1953,2022,358,359,350,646,651
USC00362470,40.4681,-78.7308,591.3,PA,EBENSBURG SEWAGE PLT,"","",,1964,2021,1964,2021,1964,2021,1964,2021,1964,2021,349,349,346,399,400
USC00363311,41.5606,-78.5994,524.3,PA,GLEN HAZEL 2 NE DAM,"","",,1955,2021,1955,2021,1942,2021,1942,2021,1942,2021,137,137,365,396,424
USC00363632,40.5517,-75.9911,112.5,PA,HAMBURG,"","",,1894,2021,1894,2021,1894,2021,1894,2021,1900,2021,343,338,329,753,793
USC00364432,41.6767,-78.8036,533.4,PA,KANE 1NNE,"","",,1894,2021,1894,2021,1894,2021,1894,2021,1940,2021,365,349,337,576,578
USC00365050,41.6458,-80.425,313.9,PA,LINESVILLE 1 S,"","",,1940,2020,1940,2020,1920,2020,1920,2020,1920,2020,282,278,265,976,886
USC00365738,41.6725,-75.0642,231.6,PA,MILANVILLE,"","",,1963,2020,1963,2020,1945,2020,1945,2020,1945,2020,139,148,311,705,655
USC00366370,40.1097,-75.3369,18.9,PA,NORRISTOWN,"","",,1951,2021,1951,2021,1948,2021,1948,2021,1948,2021,313,291,291,389,613
USC00367409,41.33,-77.7381,201.2,PA,RENOVO,"","",,1896,2021,1896,2021,1895,2021,1896,2021,1897,2021,357,356,333,310,357
USC00367931,40.7831,-76.8617,128,PA,SELINSGROVE 2 S,"",HCN,,1894,2021,1894,2021,1893,2021,1893,2021,1898,2021,280,283,270,287,311
USC00368073,40.0592,-77.5214,207.3,PA,SHIPPENSBURG,"","",,1911,2021,1911,2021,1910,2021,1912,2021,1912,2021,344,344,363,371,487
USC00368668,40.8533,-76.7892,175.3,PA,SUNBURY,"","",,1957,2021,1957,2021,1926,2021,1926,2021,1926,2021,194,185,236,214,254
USC00368888,41.6308,-79.6931,371.9,PA,TITUSVILLE WTR WKS,"","",,1954,2022,1954,2022,1954,2022,1954,2022,1954,2022,353,353,367,574,787
USC00374266,41.4903,-71.5431,35.7,RI,KINGSTON,"",HCN,,1893,2022,1893,2022,1893,2022,1893,2022,1901,2022,346,346,351,474,551
USC00394007,43.4378,-103.4739,1085.1,SD,HOT SPRINGS,"",HCN,,1894,2021,1894,2021,1894,2021,1894,2021,1897,2021,370,363,366,556,536
USC00394834,44.3544,-103.743,1558.1,SD,LEAD,"","",,1909,2021,1909,2021,1909,2021,1909,2021,1909,2021,365,369,354,369,559
USC00395281,43.1803,-101.7386,1015,SD,MARTIN,"","",,1937,2015,1937,2015,1934,2015,1934,2015,1934,2015,292,283,286,379,657
USC00395481,43.2358,-97.5714,406,SD,MENNO,"",HCN,,1896,2021,1896,2021,1896,2021,1896,2021,1899,2021,363,366,349,362,370
USC00397277,45.4528,-99.3358,559.3,SD,ROSCOE,"","",,1935,2022,1935,2022,1934,2022,1934,2022,1934,2022,328,320,280,263,453
USC00398307,45.4283,-101.0764,662.3,SD,TIMBER LAKE,"","",,1911,2022,1911,2022,1911,2022,1911,2022,1913,2022,345,356,351,568,515
USC00399442,43.4989,-100.4814,664.5,SD,WOOD,"",HCN,,1913,2021,1913,2021,1913,2021,1913,2021,1913,2021,330,342,365,598,850
USC00402108,35.5497,-89.7,117.3,TN,COVINGTON 3 SW,"",HCN,,1890,2018,1890,2018,1890,2018,1893,2018,1903,2018,351,353,358,669,863
USC00402680,35.9986,-89.4089,91.4,TN,DYERSBURG,"","",,1895,2021,1895,2021,1893,2021,1895,2021,1905,2021,60,59,54,335,323
USC00404223,35.5567,-87.5414,298.7,TN,HOHENWALD,"","",,1895,2022,1895,2022,1893,2022,1893,2022,1895,2018,314,312,251,1339,1364
USC00406012,35.9328,-88.7267,126.5,TN,MILAN EXP STN,"","",,1883,2021,1883,2021,1883,2021,1883,2021,1909,2021,371,370,342,801,935
USC00406170,36.1483,-85.265,566.9,TN,MONTEREY,"","",,1904,2022,1904,2022,1904,2022,1904,2022,1906,2022,181,183,371,973,1052
USC00406534,35.9833,-83.2008,315.8,TN,NEWPORT 1 NW,"",HCN,,1893,2022,1893,2022,1891,2022,1893,2022,1900,2022,347,342,346,381,440
USC00408886,35.3697,-84.3,277.4,TN,TELLICO PLAINS,"","",,1896,2022,1896,2022,1896,2022,1897,2022,1899,2022,309,306,248,530,410
USC00409155,35.3453,-86.2089,311.5,TN,TULLAHOMA,"",HCN,,1895,2022,1895,2022,1893,2022,1893,2022,1901,2022,371,369,366,499,682
USC00410586,29.9142,-94.9908,7.9,TX,BAYTOWN,"","",,1946,2022,1946,2022,1946,2022,1946,2022,1946,2022,321,315,289,237,292
USC00410611,30.0969,-94.0997,6.1,TX,BEAUMONT CITY,"","",,1901,2022,1901,2022,1901,2022,1901,2022,1901,2022,187,262,357,409,420
USC00410613,30.0689,-94.2928,8.2,TX,BEAUMONT RSCH CTR,"","",,1947,2021,1947,2021,1947,2021,1948,2021,1948,2021,269,268,296,549,567
USC00411128,33.1908,-102.2681,1005.8,TX,BROWNFIELD #2,"","",,1953,2022,1953,2022,1953,2022,1953,2022,1953,2022,372,364,357,568,769
USC00411578,31.8075,-94.1642,99.1,TX,CENTER,"","",,1939,2019,1939,2019,1922,2022,1922,2022,1922,2022,360,357,354,394,429
USC00412121,33.6517,-101.245,917.4,TX,CROSBYTON,"",HCN,,1893,2022,1893,2022,1893,2022,1893,2022,1897,2022,347,347,365,549,854
USC00412238,36.0606,-102.5211,1214.3,TX,DALHART,"","",,1946,2021,1946,2021,1946,2021,1946,2021,1946,2021,163,255,66,619,614
USC00414382,30.7064,-95.5422,150.6,TX,HUNTSVILLE,"","",,1903,2022,1903,2022,1903,2022,1904,2022,1925,2022,356,361,355,534,638
USC00415183,33.55,-102.3758,1071.1,TX,LEVELLAND,"","",,1937,2022,1937,2022,1926,2022,1926,2022,1926,2022,369,365,351,609,752
USC00417111,28.9606,-98.4772,109.1,TX,PLEASANTON,"","",,1948,2021,1948,2021,1948,2021,1948,2021,1948,2021,253,272,364,394,418
USC00417944,31.3708,-100.4944,576.1,TX,SAN ANGELO WFO,"","",,1947,2022,1947,2022,1947,2022,1947,2022,1947,2022,120,121,88,89,89
USC00418566,33.4792,-100.8761,700.1,TX,SPUR,"","",,1911,2022,1911,2022,1911,2022,1911,2022,1911,2022,305,308,230,386,448
USC00420738,37.6131,-109.4847,1838.6,UT,BLANDING,"",HCN,,1904,2022,1904,2022,1904,2022,1904,2022,1905,2022,369,371,347,451,1091
USC00422385,40.9656,-111.4336,1667.3,UT,ECHO DAM,"","",,1940,2022,1940,2022,1940,2022,1940,2022,1940,2022,363,351,347,585,592
USC00422592,37.7686,-111.5978,1770.9,UT,ESCALANTE,"",HCN,,1901,2022,1901,2022,1901,2022,1901,2022,1902,2022,347,349,348,349,547
USC00427064,40.2458,-111.6508,1392.9,UT,PROVO BYU,"","",,1916,2022,1916,2022,1916,2022,1916,2022,1916,2022,245,247,250,291,362
USC00427271,41.9064,-111.81,1426.5,UT,RICHMOND,"","",,1949,2022,1949,2022,1911,2022,1911,2022,1911,2022,363,372,363,433,551
USC00428771,40.5353,-112.3217,1506.9,UT,TOOELE,"",HCN,,1896,2022,1896,2022,1896,2022,1896,2022,1896,2022,350,349,349,347,401
USC00428828,41.9153,-111.9128,1357.9,UT,TRENTON,"","",,1944,2022,1944,2022,1944,2022,1944,2022,1944,2022,253,318,326,340,545
USC00437054,44.42,-72.0194,213.4,VT,SAINT JOHNSBURY,"",HCN,72614,1894,2021,1894,2021,1894,2021,1894,2021,1904,2021,345,345,350,352,363
USC00441082,37.0678,-78.9517,124.4,VA,BROOKNEAL,"","",,1953,2022,1953,2022,1950,2022,1950,2022,1950,2022,239,269,277,282,297
USC00442208,38.4547,-78.9353,413.9,VA,DALE ENTERPRISE,"",HCN,,1893,2021,1893,2021,1893,2021,1893,2021,1899,2021,362,369,372,377,445
USC00442635,37.3875,-75.9744,3,VA,EASTVILLE,"","",,1909,2015,1909,2015,1909,2015,1909,2015,1909,2015,296,337,327,355,444
USC00443272,36.6544,-80.9172,713.5,VA,GALAX WTP,"","",,1907,2022,1907,2022,1907,2022,1907,2022,1908,2022,47,46,41,259,291
USC00447506,36.8894,-81.7711,528.2,VA,SALTVILLE 1N,"","",,1894,2022,1894,2022,1895,2022,1895,2022,1923,2022,276,275,239,621,781
USC00448192,36.7297,-76.6014,6.7,VA,SUFFOLK LAKE KILBY,"","",,1945,2022,1945,2022,1945,2022,1945,2022,1945,2022,366,372,346,387,438
USC00448829,37.7433,-77.04,15.2,VA,WALKERTON 2 NW,"","",,1932,2022,1932,2022,1932,2022,1932,2022,1932,2022,356,360,363,410,458
USC00449151,37.3017,-76.7039,21.3,VA,WILLIAMSBURG 2 N,"",HCN,,1951,2022,1951,2022,1948,2022,1950,2022,1950,2022,355,354,357,768,867
USC00450257,48.2006,-122.1281,30.5,WA,ARLINGTON,"","",,1923,2020,1923,2020,1922,2020,1922,2020,1922,2020,48,47,344,804,810
USC00451630,48.5678,-117.9356,473.7,WA,COLVILLE,"",HCN,,1899,2021,1899,2021,1899,2021,1899,2021,1899,2021,289,305,300,525,547
USC00451679,48.5397,-121.7422,59.4,WA,CONCRETE PPL FISH STN,"","",,1905,2021,1905,2021,1905,2021,1905,2021,1905,2021,348,344,353,981,1055
USC00452384,47.2422,-121.1869,661.4,WA,EASTON,"","",,1905,2022,1905,2022,1905,2022,1905,2022,1905,2022,159,259,154,553,418
USC00453222,45.8081,-120.8428,499.9,WA,GOLDENDALE,"",HCN,,1905,2022,1905,2022,1905,2022,1905,2022,1906,2022,272,263,279,1172,1263
USC00460102,37.7272,-80.6583,473,WV,ALDERSON,"","",,1944,2022,1944,2022,1944,2022,1944,2022,1944,2022,93,81,351,492,608
USC00470265,44.2769,-88.4378,241.4,WI,APPLETON,"","",,1893,2022,1893,2022,1893,2022,1893,2022,1901,2022,342,345,342,347,394
USC00470486,44.9633,-92.3906,335.3,WI,BALDWIN,"","",,1948,2021,1948,2021,1948,2021,1948,2021,1948,2021,98,94,349,674,725
USC00472973,43.975,-89.8308,288,WI,FRIENDSHIP,"","",,1930,2021,1930,2021,1930,2021,1930,2021,1930,2021,148,144,119,110,114
USC00474391,45.465,-91.1236,344.4,WI,LADYSMITH 3W,"","",,1901,2021,1901,2021,1901,2021,1901,2021,1901,2021,202,202,244,223,775
USC00475352,46.1683,-90.0722,487.7,WI,MERCER RANGER STA,"","",,1940,2020,1940,2020,1940,2020,1941,2020,1941,2016,156,154,369,826,558
USC00477052,43.5231,-90.0003,282.2,WI,REEDSBURG,"","",,1893,2021,1893,2021,1893,2021,1893,2021,1915,2021,303,284,325,403,497
USC00478267,44.88,-87.3358,213.1,WI,STURGEON BAY EXP FARM,"","",,1905,2022,1905,2022,1905,2022,1905,2022,1905,2022,348,353,348,353,472
USC00480432,42.5008,-108.7339,2383.8,WY,ATLANTIC CITY,"","",,1897,2021,1897,2021,1897,2021,1897,2021,1897,2021,50,76,61,46,95
USC00480585,44.1497,-111.0461,1960.5,WY,BECHLER RVR RS,"","",,1930,2021,1930,2021,1911,2021,1911,2021,1911,2021,246,248,194,168,219
USC00482685,42.7467,-105.3603,1484.4,WY,DOUGLAS 1 SE,"","",,1909,2016,1909,2016,1909,2016,1909,2016,1911,2016,350,351,270,232,422
USC00485612,42.1297,-104.39,1267.4,WY,LINGLE 2WSW,"","",,1952,2022,1952,2022,1952,2022,1952,2022,1952,2022,68,70,275,260,360
USC00487375,43.0353,-106.9894,1744.1,WY,POWDER RVR (SCHOOL),"","",,1948,2022,1948,2022,1948,2022,1948,2022,1948,2022,53,51,64,44,44
USC00487810,43.645,-104.8414,1292,WY,ROCHELLE 7ENE,"","",,1928,2021,1928,2021,1927,2021,1927,2021,1927,2021,310,289,297,289,343
USC00501684,64.0917,-141.9211,548.6,AK,CHICKEN,"","",,1953,2022,1953,2022,1911,2022,1911,2022,1911,2022,245,241,293,176,862
USC00508525,59.4547,-135.3136,10.7,AK,SKAGWAY,"","",70362,1898,2021,1898,2021,1898,2021,1898,2021,1898,2021,156,158,154,147,166
USC00508584,58.1422,-133.7386,8.8,AK,SNETTISHAM PWR PLT,"","",,1964,2021,1964,2021,1964,2021,1964,2021,1964,2021,179,191,118,124,120
USW00003104,33.6267,-116.1594,-36,CA,DESERT RESORTS RGNL AP,"","",,1950,2022,1950,2022,1950,2022,1950,2020,1950,2021,359,362,363,319,284
USW00003125,32.8356,-114.3942,98.8,AZ,YUMA PROVING GROUND,"","",,1955,2021,1955,2021,1955,2021,1955,2021,1955,2021,350,350,345,304,350
USW00003144,32.8342,-115.5786,-17.7,CA,IMPERIAL CO AP,"","",,1962,2022,1962,2022,1962,2022,1962,2022,1962,2019,247,246,238,166,148
USW00003812,35.4319,-82.5375,645.3,NC,ASHEVILLE RGNL AP,"","",72315,1946,2022,1946,2022,1946,2022,1946,2022,1946,2022,345,345,345,345,345
USW00003816,37.0683,-88.7719,119.5,KY,PADUCAH,"","",72435,1949,2022,1949,2022,1949,2022,1949,2022,1949,2022,346,346,345,415,350
USW00003818,30.8356,-85.1839,34.4,FL,MARIANNA MUNI AP,"","",74776,1950,2022,1950,2022,1950,2022,1950,2022,1950,2022,246,247,176,146,426
USW00003820,33.3644,-81.9633,40.2,GA,AUGUSTA BUSH FLD AP,"","",72218,1944,2022,1944,2022,1942,2022,1946,2022,1946,2022,350,350,345,378,354
USW00003822,32.13,-81.21,14,GA,SAVANNAH INTL AP,"",HCN,72207,1948,2022,1948,2022,1948,2022,1948,2022,1948,2022,345,345,345,348,315
USW00003856,34.6439,-86.7861,190.2,AL,HUNTSVILLE INTL AP,"","",72323,1958,2022,1958,2022,1958,2022,1958,2022,1958,2022,346,347,345,465,435
USW00003859,37.2958,-81.2078,874.8,WV,BLUEFIELD MERCER CO AP,"","",,1959,2022,1959,2022,1959,2022,1959,2022,1959,2022,353,354,349,337,337
USW00003860,38.365,-82.555,251.2,WV,HUNTINGTON TRI STATE AP,"","",72425,1961,2022,1961,2022,1961,2022,1961,2022,1961,2022,345,345,348,294,294
USW00003868,39.4519,-87.3089,175.3,IN,TERRE HAUTE HULMAN RGNL AP,"","",,1961,2022,1961,2022,1961,2022,1961,2020,1961,2020,164,162,159,133,394
USW00003870,34.8831,-82.2203,286.5,SC,GREER,GSN,HCN,72312,1962,2022,1962,2022,1962,2022,1962,2022,1962,2022,345,345,345,386,379
USW00003872,37.7836,-81.1231,766.3,WV,BECKLEY RALEIGH CO AP,"","",72412,1963,2022,1963,2022,1963,2022,1963,2022,1963,2022,346,346,345,413,330
USW00003904,30.5892,-96.3647,93,TX,COLLEGE STN,"","",74746,1951,2022,1951,2022,1951,2022,1951,2022,1951,2022,351,352,336,217,414
USW00003919,38.8,-97.65,386.8,KS,SALINA MUNI AP,"","",,1952,2022,1952,2022,1952,2022,1952,2018,1952,2020,355,354,336,569,522
USW00003927,32.8978,-97.0189,170.7,TX,DALLAS FT WORTH AP,"","",72259,1953,2022,1953,2022,1953,2022,1953,2022,1953,2022,345,345,345,357,463
USW00003928,37.6544,-97.4425,406.9,KS,WICHITA,"","",72450,1953,2022,1953,2022,1953,2022,1953,2022,1953,2022,348,345,345,345,345
USW00003932,35.21,-99.12,585.8,OK,CLINTON SHERMAN AP,"","",,1958,2022,1958,2022,1958,2022,1958,2022,1958,2022,297,295,237,60,173
USW00003937,30.125,-93.2158,4,LA,LAKE CHARLES,"","",72240,1961,2022,1961,2022,1961,2022,1961,2022,1961,2022,345,345,345,330,404
USW00003940,32.3206,-90.0778,100.6,MS,JACKSON INTL AP,"","",72235,1963,2022,1963,2022,1963,2022,1951,2022,1951,2022,345,345,345,299,297
USW00003959,36.7683,-96.0261,217.9,OK,BARTLESVILLE F P FLD,"",HCN,,1920,2022,1920,2022,1920,2022,1920,2022,1920,2022,369,372,371,503,504
USW00004725,42.1997,-75.985,489.5,NY,BINGHAMTON,"",HCN,72515,1951,2022,1951,2022,1951,2022,1951,2022,1951,2022,345,345,345,350,355
USW00004781,40.7939,-73.1017,25.6,NY,ISLIP LI MACARTHUR AP,"","",72505,1963,2022,1963,2022,1963,2022,1963,2022,1963,2022,349,349,353,422,725
USW00012816,29.6919,-82.2756,37.5,FL,GAINESVILLE RGNL AP,"","",74756,1960,2022,1960,2022,1960,2022,1960,2022,1960,2022,250,250,250,926,320
USW00012833,29.6333,-83.1053,11.6,FL,CROSS CITY AP,"","",72212,1949,2022,1949,2022,1949,2022,1949,2022,1949,2022,216,216,130,118,498
USW00012834,29.1828,-81.0483,9.4,FL,DAYTONA BEACH INTL AP,"","",74787,1937,2022,1937,2022,1937,2022,1948,2022,1948,2022,345,345,345,241,327
USW00012835,26.585,-81.8614,4.6,FL,FT MYERS PAGE FLD AP,"",HCN,,1892,2022,1892,2022,1892,2022,1907,2022,1911,2022,330,330,337,212,210
USW00012836,24.555,-81.7522,1.2,FL,KEY WEST INTL AP,GSN,HCN,72201,1948,2022,1948,2022,1948,2022,1948,2022,1948,2022,348,349,348,243,331
USW00012839,25.7906,-80.3164,8.8,FL,MIAMI INTL AP,"","",72202,1948,2022,1948,2022,1948,2022,1948,2022,1948,2022,345,345,345,247,246
USW00012841,28.5453,-81.3331,32.9,FL,ORLANDO EXECUTIVE AP,"","",,1892,2022,1892,2022,1892,2022,1948,2022,1948,2022,231,231,200,103,274
USW00012842,27.9619,-82.5403,5.8,FL,TAMPA INTL AP,GSN,"",72211,1939,2022,1939,2022,1939,2022,1939,2022,1939,2022,345,345,345,349,346
USW00012843,27.6511,-80.42,8.5,FL,VERO BEACH INTL AP,"","",74793,1942,2022,1942,2022,1923,2022,1944,2022,1944,2022,226,226,223,126,126
USW00012844,26.6847,-80.0994,5.8,FL,WEST PALM BEACH INTL AP,"","",72203,1938,2022,1938,2022,1938,2022,1938,2022,1940,2022,345,345,346,264,322
USW00012849,26.0719,-80.1536,3.4,FL,FT LAUDERDALE HOLLYWOOD AP,"","",74783,1945,2022,1945,2022,1945,2022,1945,2022,1945,2022,126,126,126,0,115
USW00012854,28.7797,-81.2436,16.8,FL,ORLANDO SANFORD AP,"","",,1945,2022,1945,2022,1945,2022,1945,2022,1945,2022,197,197,189,84,198
USW00012883,28.0206,-81.9219,44.2,FL,LAKELAND,"","",,1948,2022,1948,2022,1948,2022,1948,2022,1948,2022,208,208,208,208,213
USW00012904,26.2281,-97.6542,10.4,TX,HARLINGEN RIO GRANDE AP,"","",,1952,2022,1952,2022,1952,2022,1952,2022,1952,2022,194,194,148,78,264
USW00012907,27.5333,-99.4667,153.9,TX,LAREDO AFB,"","",72252,1965,2022,1965,2022,1965,2022,1965,2022,1965,2022,84,84,113,123,122
USW00012912,28.8614,-96.9303,35.1,TX,VICTORIA RGNL AP,"","",72255,1953,2022,1953,2022,1953,2022,1953,2022,1953,2022,345,345,346,265,263
USW00012917,29.9506,-94.0206,4.9,TX,PORT ARTHUR SE TX AP,"","",72241,1947,2022,1947,2022,1947,2022,1947,2022,1947,2022,345,345,347,212,269
USW00012918,29.6381,-95.2819,13.4,TX,HOUSTON HOBBY AP,"","",72244,1930,2022,1930,2022,1930,2022,1932,2022,1932,2022,350,350,350,280,486
USW00012919,25.9156,-97.4186,7,TX,BROWNSVILLE,"","",72250,1898,2022,1898,2022,1898,2022,1898,2022,1898,2022,345,345,345,268,302
USW00012921,29.5442,-98.4839,240.5,TX,SAN ANTONIO INTL AP,GSN,HCN,72253,1946,2022,1946,2022,1946,2022,1946,2022,1946,2022,345,345,345,423,395
USW00012924,27.7839,-97.5108,13.7,TX,CORPUS CHRISTI,"",HCN,72251,1948,2022,1948,2022,1948,2022,1948,2022,1948,2022,345,345,345,285,372
USW00012932,27.7411,-98.0247,52.7,TX,ALICE INTL AP,"","",,1948,2022,1948,2022,1948,2022,1948,2022,1948,2022,145,143,121,0,0
USW00012935,28.7247,-96.2536,3.7,TX,PALACIOS MUNI AP,"","",,1943,2022,1943,2022,1943,2022,1943,2022,1943,2022,355,355,349,255,255
USW00012947,28.4567,-99.2183,145.1,TX,COTULLA LA SALLE CO AP,"","",,1949,2022,1949,2022,1949,2022,1949,2022,1949,2022,246,246,230,124,124
USW00013722,35.8922,-78.7819,126.8,NC,RALEIGH DURHAM INTL AP,GSN,"",72306,1944,2022,1944,2022,1944,2022,1944,2022,1944,2022,345,345,345,345,345
USW00013723,36.0969,-79.9433,271.3,NC,PIEDMONT TRIAD INTL AP,"","",72317,1928,2022,1928,2022,1928,2022,1928,2022,1928,2022,345,345,346,345,348
USW00013728,36.5728,-79.3361,174,VA,DANVILLE RGNL AP,"","",,1945,2022,1945,2022,1945,2022,1945,2022,1946,2022,105,105,107,237,238
USW00013729,38.8853,-79.8528,603.2,WV,ELKINS RANDOLPH CO AP,"","",72417,1926,2022,1926,2022,1926,2022,1926,2022,1926,2022,346,345,345,359,472
USW00013733,37.3208,-79.2067,286.5,VA,LYNCHBURG RGNL AP,"","",72410,1944,2022,1944,2022,1944,2022,1944,2022,1944,2022,347,349,345,346,359
USW00013737,36.9033,-76.1922,9.1,VA,NORFOLK INTL AP,"",HCN,72308,1946,2022,1946,2022,1946,2022,1946,2022,1946,2022,345,345,347,411,328
USW00013739,39.8683,-75.2311,3,PA,PHILADELPHIA INTL AP,"","",72408,1940,2022,1940,2022,1940,2022,1940,2022,1940,2022,345,345,345,345,346
USW00013740,37.505,-77.3203,50,VA,RICHMOND INTL AP,"","",72401,1939,2022,1939,2022,1939,2022,1939,2022,1946,2022,345,345,345,465,569
USW00013741,37.3169,-79.9742,358.1,VA,ROANOKE RGNL AP,"","",72411,1948,2022,1948,2022,1948,2022,1948,2022,1948,2022,345,345,345,346,358
USW00013743,38.8483,-77.0342,3,VA,WASHINGTON REAGAN AP,GSN,"",72405,1945,2022,1945,2022,1945,2022,1945,2022,1945,2022,345,345,345,345,369
USW00013748,34.2675,-77.8997,10.1,NC,WILMINGTON INTL AP,"","",72302,1948,2022,1948,2022,1948,2022,1948,2022,1948,2022,345,345,345,347,349
USW00013781,39.6728,-75.6008,24.1,DE,WILMINGTON NEW CASTLE CO AP,"","",72418,1948,2022,1948,2022,1948,2022,1948,2022,1948,2022,345,345,347,346,440
USW00013786,36.2606,-76.175,4,NC,ELIZABETH CITY CGAS,"","",72307,1948,2022,1948,2022,1948,2022,1948,2022,1948,2022,304,304,248,246,245
USW00013838,30.6264,-88.0681,7.9,AL,MOBILE DWTN AP,"","",,1948,2022,1948,2022,1948,2022,1948,2022,1948,2022,247,248,211,37,810
USW00013841,39.4203,-83.8217,321.9,OH,CINCINNATI,"","",72426,1949,2022,1949,2022,1949,2022,1949,2022,1949,2022,294,294,225,59,62
USW00013865,32.3347,-88.7442,89.6,MS,MERIDIAN KEY FLD,GSN,"",72234,1944,2022,1944,2022,1944,2022,1944,2022,1944,2022,345,345,347,295,306
USW00013866,38.3794,-81.59,277.4,WV,CHARLESTON YEAGER AP,"","",72414,1947,2022,1947,2022,1947,2022,1947,2022,1947,2022,345,345,345,348,348
USW00013869,31.5356,-84.1944,57.9,GA,ALBANY SW GA RGNL AP,"","",72216,1948,2022,1948,2022,1948,2022,1948,2022,1948,2022,133,133,140,117,50
USW00013870,31.5358,-82.5067,58.8,GA,ALMA BACON CO AP,"","",72316,1938,2022,1938,2022,1938,2022,1938,2022,1938,2022,346,346,351,328,328
USW00013871,33.5872,-85.8556,181.1,AL,ANNISTON METRO AP,"","",,1903,2022,1903,2022,1903,2022,1903,2022,1904,2022,349,351,350,244,302
USW00013872,35.5953,-82.5567,682.1,NC,ASHEVILLE,"","",,1876,2022,1876,2022,1876,2022,1876,2022,1895,2022,345,345,349,348,358
USW00013873,33.9481,-83.3275,239.3,GA,ATHENS BEN EPPS AP,"","",72311,1944,2022,1944,2022,1944,2022,1945,2022,1947,2022,345,345,345,268,324
USW00013874,33.63,-84.4417,307.8,GA,ATLANTA HARTSFIELD INTL AP,"","",72219,1930,2022,1930,2022,1930,2022,1930,2022,1930,2022,345,345,345,512,376
USW00013876,33.5656,-86.745,187.5,AL,BIRMINGHAM AP,"","",72228,1930,2022,1930,2022,1930,2022,1930,2022,1930,2022,345,345,345,344,344
USW00013877,36.4731,-82.4044,457.2,TN,BRISTOL TRI CITY AP,"","",72335,1937,2022,1937,2022,1937,2022,1937,2022,1937,2022,346,346,345,362,388
USW00013878,31.1522,-81.3908,4.9,GA,BRUNSWICK MALCOLM MCKINNON AP,"","",,1944,2022,1944,2022,1940,2022,1941,2022,1947,2022,347,347,348,267,266
USW00013880,32.8986,-80.0403,12.2,SC,CHARLESTON INTL AP,GSN,"",72208,1937,2022,1937,2022,1937,2022,1937,2022,1937,2022,345,345,345,344,344
USW00013881,35.2236,-80.9553,221.9,NC,CHARLOTTE DOUGLAS AP,"","",72314,1939,2022,1939,2022,1939,2022,1939,2022,1939,2022,345,345,345,345,345
USW00013882,35.0311,-85.2014,204.5,TN,CHATTANOOGA LOVELL AP,GSN,"",72324,1938,2022,1938,2022,1938,2022,1938,2022,1938,2022,345,345,345,380,383
USW00013883,33.9486,-81.1186,70.4,SC,COLUMBIA,"","",72310,1948,2022,1948,2022,1948,2022,1948,2022,1948,2022,345,345,345,349,347
USW00013884,30.7797,-86.5225,57.9,FL,CRESTVIEW BOB SIKES AP,"","",,1948,2022,1948,2022,1948,2022,1948,2022,1948,2022,283,288,303,150,341
USW00013889,30.4844,-81.7019,10.1,FL,JACKSONVILLE,"","",72206,1938,2022,1938,2022,1938,2022,1938,2022,1938,2022,345,345,345,270,265
USW00013891,35.8181,-83.9858,293.2,TN,KNOXVILLE MCGHEE TYSON AP,"","",72326,1910,2022,1910,2022,1910,2022,1910,2022,1910,2022,345,345,347,419,517
USW00013893,35.0564,-89.9864,77.4,TN,MEMPHIS INTL AP,"","",72334,1940,2022,1940,2022,1940,2022,1940,2022,1940,2022,345,345,345,302,377
USW00013894,30.6794,-88.2397,63.4,AL,MOBILE,"","",72223,1948,2022,1948,2022,1948,2022,1948,2022,1948,2022,345,345,345,370,382
USW00013895,32.2997,-86.4075,61.6,AL,MONTGOMERY AP,"","",72226,1948,2022,1948,2022,1948,2022,1948,2022,1948,2022,347,347,347,265,264
USW00013896,34.7442,-87.5997,164.6,AL,MUSCLE SHOALS RGNL AP,"",HCN,,1940,2022,1940,2022,1940,2022,1940,2022,1940,2022,366,366,333,215,425
USW00013897,36.1189,-86.6892,182.9,TN,NASHVILLE INTL AP,"","",72327,1948,2022,1948,2022,1948,2022,1948,2022,1948,2022,345,345,345,338,1051
USW00013899,30.4781,-87.1869,34.1,FL,PENSACOLA RGNL AP,"",HCN,72222,1948,2022,1948,2022,1948,2022,1948,2022,1948,2022,345,345,345,375,385
USW00013939,33.4825,-90.9853,39,MS,GREENVILLE ASOS,"","",74768,1953,2022,1953,2022,1953,2022,1953,2022,1953,2022,134,134,99,0,0
USW00013942,32.5156,-92.0406,24.1,LA,MONROE RGNL AP,"","",,1930,2022,1930,2022,1930,2022,1930,2022,1930,2022,353,353,346,237,474
USW00013957,32.4506,-93.8411,83.2,LA,SHREVEPORT,GSN,"",72248,1939,2022,1939,2022,1939,2022,1939,2022,1939,2022,345,345,345,354,348
USW00013958,30.3208,-97.7603,204.2,TX,AUSTIN-CAMP MABRY,"","",72254,1938,2022,1938,2022,1938,2022,1938,2022,1938,2022,345,345,345,369,376
USW00013959,31.6189,-97.2283,152.4,TX,WACO RGNL AP,"","",72256,1941,2022,1941,2022,1941,2022,1941,2022,1941,2022,345,345,345,352,321
USW00013960,32.8519,-96.8556,134.1,TX,DALLAS LOVE FLD,"","",72258,1939,2022,1939,2022,1939,2022,1939,2022,1939,2022,358,358,356,364,451
USW00013961,32.8192,-97.3614,209.4,TX,FT WORTH MEACHAM FLD,"","",74739,1946,2022,1946,2022,1946,2022,1946,2022,1946,2019,184,184,178,35,154
USW00013962,32.4106,-99.6822,545.6,TX,ABILENE RGNL AP,GSN,"",72266,1948,2022,1948,2022,1948,2022,1948,2022,1948,2022,345,345,345,362,354
USW00013963,34.7272,-92.2389,78.6,AR,LITTLE ROCK AP ADAMS FLD,"","",,1938,2022,1938,2022,1938,2022,1938,2022,1938,2022,345,345,345,363,347
USW00013964,35.3331,-94.3625,136.9,AR,FT SMITH RGNL AP,GSN,"",72344,1945,2022,1945,2022,1945,2022,1945,2022,1945,2022,345,345,353,500,430
USW00013966,33.9786,-98.4928,310,TX,WICHITA FALLS MUNI AP,"","",72351,1907,2022,1907,2022,1897,2022,1897,2022,1897,2022,347,347,347,346,359
USW00013967,35.3889,-97.6006,391.7,OK,OKLAHOMA CITY WILL ROGERS AP,GSN,"",72353,1948,2022,1948,2022,1948,2022,1948,2022,1948,2022,345,345,345,345,351
USW00013968,36.1994,-95.8872,198.1,OK,TULSA INTL AP,"","",72356,1938,2022,1938,2022,1938,2022,1938,2022,1938,2022,345,345,356,350,349
USW00013969,36.7367,-97.1019,304.8,OK,PONCA CITY MUNI AP,"","",72453,1948,2022,1948,2022,1948,2022,1948,2022,1948,2022,348,349,352,245,246
USW00013971,36.2667,-93.1567,418.8,AR,HARRISON BOONE CO AP,"","",72345,1948,2022,1948,2022,1948,2022,1948,2022,1948,2022,353,353,354,241,242
USW00013972,32.3542,-95.4025,165.8,TX,TYLER POUNDS FLD,"","",,1883,2022,1883,2022,1883,2022,1895,2022,1895,2022,143,143,138,89,29
USW00013973,30.5108,-99.7664,533.1,TX,JUNCTION KIMBLE CO AP,"","",74740,1948,2022,1948,2022,1948,2022,1948,2022,1948,2022,169,169,154,59,388
USW00013975,36.2967,-99.7689,667.8,OK,GAGE AP,"","",74641,1904,2022,1904,2022,1904,2022,1904,2022,1905,2022,368,371,341,215,628
USW00013976,30.205,-91.9875,11.6,LA,LAFAYETTE RGNL AP,"",HCN,,1893,2022,1893,2022,1893,2022,1893,2022,1914,2022,350,352,348,240,355
USW00013984,39.5514,-97.6508,447.8,KS,CONCORDIA MUNI AP,GSN,"",72458,1885,2022,1885,2022,1885,2022,1893,2022,1893,2022,345,345,345,468,393
USW00013985,37.7608,-99.9683,789.4,KS,DODGE CITY,GSN,"",72451,1948,2022,1948,2022,1909,2022,1909,2022,1921,2022,345,345,346,347,347
USW00013988,39.1208,-94.5969,226.2,MO,KANSAS CITY DOWNTOWN AP,"","",,1934,2022,1934,2022,1934,2022,1934,2021,1934,2018,326,327,332,634,561
USW00013989,38.3306,-96.1897,368.5,KS,EMPORIA MUNI AP,"","",,1950,2022,1950,2022,1950,2022,1950,2017,1950,2017,309,314,265,293,396
USW00013993,39.7736,-94.9233,249.3,MO,ST JOSEPH ROSECRANS AP,"","",72449,1948,2022,1948,2022,1948,2022,1948,2022,1948,2022,282,316,319,583,745
USW00013994,38.7525,-90.3736,161.8,MO,ST LOUIS LAMBERT INTL AP,"","",72434,1938,2022,1938,2022,1938,2022,1938,2022,1938,2022,345,345,345,346,346
USW00013995,37.2353,-93.4003,389.5,MO,SPRINGFIELD,"","",72440,1940,2022,1940,2022,1940,2022,1940,2022,1940,2022,345,345,345,347,455
USW00013996,39.0725,-95.6261,267,KS,TOPEKA MUNI AP,"","",72456,1946,2022,1946,2022,1946,2022,1946,2022,1946,2022,345,345,345,348,347
USW00014605,44.3206,-69.7972,106.7,ME,AUGUSTA STATE AP,"","",,1948,2022,1948,2022,1948,2022,1948,2022,1948,2019,346,346,345,268,264
USW00014606,44.7978,-68.8186,45.1,ME,BANGOR INTL AP,"","",72607,1953,2022,1953,2022,1953,2022,1953,2022,1953,2022,355,356,358,382,556
USW00014607,46.8706,-68.0172,190.2,ME,CARIBOU MUNI AP,GSN,"",72712,1939,2022,1939,2022,1939,2022,1939,2022,1939,2022,345,345,345,351,350
USW00014710,42.9333,-71.4383,68.6,NH,MANCHESTER AP,"","",,1948,2022,1948,2022,1948,2022,1948,2022,1948,2022,180,180,128,779,634
USW00014711,40.1936,-76.7633,95.1,PA,MIDDLETOWN HARRISBURG INTL AP,"","",72399,1941,2022,1941,2022,1941,2022,1941,2022,1941,2022,192,192,198,194,182
USW00014712,40.3667,-75.9667,103.9,PA,READING SPAATZ FLD,"","",,1949,2022,1949,2022,1949,2022,1949,2019,1949,2019,127,127,127,30,208
USW00014732,40.7794,-73.8803,3.4,NY,NEW YORK LAGUARDIA AP,"","",72503,1939,2022,1939,2022,1940,2022,1940,2022,1940,2022,345,345,345,345,345
USW00014733,42.9486,-78.7369,211.2,NY,BUFFALO,"",HCN,72528,1938,2022,1938,2022,1938,2022,1939,2022,1939,2022,345,345,345,358,347
USW00014734,40.6825,-74.1694,2.1,NJ,NEWARK INTL AP,"","",72502,1893,2022,1893,2022,1893,2022,1893,2022,1901,2022,345,345,345,345,345
USW00014735,42.7431,-73.8092,95.1,NY,ALBANY AP,"",HCN,72518,1938,2022,1938,2022,1938,2022,1938,2022,1938,2022,345,345,345,446,425
USW00014737,40.6508,-75.4492,118.9,PA,ALLENTOWN INTL AP,"",HCN,72517,1948,2022,1948,2022,1948,2022,1948,2022,1948,2022,345,345,345,345,464
USW00014740,41.9381,-72.6825,57.9,CT,HARTFORD BRADLEY INTL AP,"","",72508,1949,2022,1949,2022,1949,2022,1949,2022,1949,2022,345,345,345,304,598
USW00014742,44.4683,-73.15,100.6,VT,BURLINGTON INTL AP,GSN,HCN,72617,1940,2022,1940,2022,1940,2022,1943,2022,1943,2022,345,345,345,360,349
USW00014745,43.1953,-71.5011,105.5,NH,CONCORD MUNI AP,"","",72605,1939,2022,1939,2022,1939,2022,1939,2022,1939,2022,347,347,345,345,420
USW00014750,43.35,-73.6167,97.8,NY,GLENS FALLS AP,"","",72522,1944,2022,1944,2022,1944,2022,1944,2019,1944,2019,348,347,347,249,249
USW00014755,44.2667,-71.2994,1910.2,NH,MT WASHINGTON,GSN,"",72613,1948,2022,1948,2022,1948,2022,1948,2021,1948,2022,345,345,345,345,346
USW00014763,42.4272,-73.2892,363.9,MA,PITTSFIELD MUNI AP,"","",,1925,2022,1925,2022,1925,2022,1925,2019,1925,2019,162,162,156,92,205
USW00014764,43.6497,-70.3003,13.7,ME,PORTLAND INTL JETPORT,"",HCN,72606,1940,2022,1940,2022,1940,2022,1940,2022,1940,2022,345,345,345,357,452
USW00014765,41.7219,-71.4325,18.3,RI,PROVIDENCE T F GREEN AP,"",HCN,72507,1948,2022,1948,2022,1948,2022,1948,2022,1948,2022,348,348,345,445,476
USW00014768,43.1167,-77.6767,162.5,NY,ROCHESTER GTR INTL AP,"",HCN,72529,1926,2022,1926,2022,1926,2022,1926,2022,1926,2022,345,345,345,349,349
USW00014771,43.1111,-76.1039,125.9,NY,SYRACUSE HANCOCK INTL AP,GSN,HCN,72519,1938,2022,1938,2022,1938,2022,1938,2022,1938,2022,345,345,350,345,345
USW00014778,41.2433,-76.9217,158.5,PA,WILLIAMSPORT,"",HCN,72514,1948,2022,1948,2022,1948,2022,1948,2022,1901,2022,345,345,349,491,449
USW00014820,41.4131,-81.86,232.6,OH,CLEVELAND,"","",72524,1938,2022,1938,2022,1938,2022,1938,2022,1938,2022,345,345,345,347,348
USW00014821,39.9914,-82.8808,246.9,OH,COLUMBUS PORT COLUMBUS INTL AP,"","",72428,1948,2022,1948,2022,1948,2022,1948,2022,1948,2022,345,345,345,345,348
USW00014826,42.9667,-83.7494,234.7,MI,FLINT BISHOP INTL AP,"","",72637,1948,2022,1948,2022,1948,2022,1948,2022,1948,2022,345,345,345,362,345
USW00014827,40.9706,-85.2064,241.1,IN,FT WAYNE INTL AP,"","",72533,1939,2022,1939,2022,1939,2022,1939,2022,1939,2022,345,345,345,346,345
USW00014829,41.5272,-85.7922,252.1,IN,GOSHEN MUNI AP,"","",,1953,2022,1953,2022,1948,2022,1948,2021,1948,2021,200,203,138,457,800
USW00014836,42.7803,-84.5789,256.3,MI,LANSING CAPITAL CITY AP,"","",72539,1948,2022,1948,2022,1948,2022,1948,2022,1948,2022,345,345,348,308,640
USW00014837,43.1406,-89.3453,264,WI,MADISON DANE RGNL AP,"","",72641,1939,2022,1939,2022,1939,2022,1939,2022,1939,2022,345,345,345,372,350
USW00014839,42.955,-87.9044,204.2,WI,MILWAUKEE MITCHELL AP,"","",72640,1938,2022,1938,2022,1938,2022,1938,2022,1938,2022,345,345,345,345,345
USW00014840,43.1711,-86.2367,190.5,MI,MUSKEGON CO AP,"","",72636,1896,2022,1896,2022,1896,2022,1896,2022,1896,2022,345,345,346,349,435
USW00014842,40.6675,-89.6839,198.1,IL,PEORIA GTR PEORIA AP,GSN,"",72532,1943,2022,1943,2022,1943,2022,1943,2022,1943,2022,345,345,345,360,406
USW00014845,43.5331,-84.0797,201.2,MI,SAGINAW MBS INTL AP,"","",,1898,2022,1898,2022,1898,2022,1898,2022,1909,2022,345,345,345,347,661
USW00014847,46.4794,-84.3572,220.1,MI,SAULT STE MARIE SANDERSON FLD,"","",72734,1931,2022,1931,2022,1931,2022,1948,2022,1948,2022,345,345,347,385,415
USW00014848,41.7072,-86.3164,235.6,IN,SOUTH BEND MICHIANA RGNL AP,"","",72535,1893,2022,1893,2022,1893,2022,1893,2022,1896,2022,345,345,348,377,369
USW00014850,44.7408,-85.5825,188.4,MI,TRAVERSE CITY CHERRY CPTL AP,"","",,1896,2022,1896,2022,1896,2022,1896,2020,1896,2022,356,353,354,2366,2251
USW00014852,41.2544,-80.6739,359.7,OH,YOUNGSTOWN RGNL AP,"","",72525,1934,2022,1934,2022,1934,2022,1934,2022,1934,2022,345,345,345,338,338
USW00014860,42.08,-80.1825,222.5,PA,ERIE INTL AP,"",HCN,72526,1926,2022,1926,2022,1926,2022,1926,2022,1926,2022,345,345,348,441,389
USW00014891,40.8203,-82.5178,394.7,OH,MANSFIELD LAHM MUNI AP,"","",72420,1948,2022,1948,2022,1948,2022,1948,2022,1948,2022,345,345,345,360,335
USW00014894,40.1764,-80.6472,359.4,WV,WHEELING OHIO CO AP,"","",,1948,2022,1948,2022,1948,2022,1948,2019,1948,2019,207,207,128,654,506
USW00014895,40.9167,-81.4333,368.2,OH,AKRON CANTON RGNL AP,"","",72521,1948,2022,1948,2022,1948,2022,1948,2022,1948,2022,345,345,345,336,366
USW00014897,44.9258,-89.6256,360,WI,WAUSAU DWTN AP,"","",72646,1941,2022,1941,2022,1941,2022,1941,2022,1941,2022,351,351,347,346,339
USW00014898,44.4983,-88.1111,207.9,WI,GREEN BAY,"","",72645,1886,2022,1886,2022,1886,2022,1886,2022,1889,2022,345,345,345,345,345
USW00014913,46.8369,-92.2097,435.3,MN,DULUTH,"","",72745,1948,2022,1948,2022,1948,2022,1948,2022,1948,2022,345,345,345,370,400
USW00014914,46.9253,-96.8111,274.3,ND,FARGO HECTOR INTL AP,"","",72753,1891,2022,1891,2022,1891,2022,1892,2022,1942,2022,345,345,345,347,258
USW00014916,47.9428,-97.1839,256.6,ND,GRAND FORKS INTL AP,"","",72757,1941,2022,1941,2022,1941,2022,1941,2022,1941,2022,341,341,341,346,341
USW00014918,48.5614,-93.3981,360.6,MN,INTL FALLS INTL AP,"","",72747,1906,2022,1906,2022,1906,2022,1907,2022,1906,2022,345,345,345,343,339
USW00014920,43.8789,-91.2528,198.7,WI,LA CROSSE MUNI AP,"","",72643,1938,2022,1938,2022,1938,2022,1938,2022,1938,2022,366,355,353,344,346
USW00014921,43.2119,-90.1814,218.5,WI,LONE ROCK TRI CO AP,"","",,1948,2022,1948,2022,1948,2022,1948,2021,1948,2021,307,308,281,1097,1001
USW00014922,44.8831,-93.2289,265.8,MN,MINNEAPOLIS/ST PAUL AP,GSN,HCN,72658,1938,2022,1938,2022,1938,2022,1938,2022,1938,2022,345,345,345,319,601
USW00014923,41.4653,-90.5233,180.4,IL,MOLINE QUAD CITY INTL AP,"","",72544,1943,2022,1943,2022,1943,2022,1943,2022,1943,2022,345,345,345,345,266
USW00014925,43.9042,-92.4917,397.5,MN,ROCHESTER INTL AP,"","",72644,1893,2022,1893,2022,1893,2022,1893,2022,1908,2022,345,345,346,345,345
USW00014926,45.5433,-94.0514,310.3,MN,ST CLOUD RGNL AP,"","",72655,1939,2022,1939,2022,1904,2022,1904,2022,1939,2022,345,345,345,459,414
USW00014933,41.5339,-93.6531,291.7,IA,DES MOINES INTL AP,GSN,"",72546,1945,2022,1945,2022,1945,2022,1945,2022,1947,2022,346,346,346,345,345
USW00014935,40.9611,-98.3136,560.8,NE,GRAND ISLAND AP,"","",72552,1938,2022,1938,2022,1938,2022,1938,2022,1938,2022,346,346,345,425,414
USW00014936,44.3981,-98.2231,390.1,SD,HURON RGNL AP,GSN,"",72654,1881,2022,1881,2022,1881,2022,1888,2022,1888,2022,345,345,345,345,345
USW00014937,41.6328,-91.5431,198.1,IA,IOWA CITY MUNI AP,"","",,1948,2022,1948,2022,1948,2022,1948,2015,1948,2015,184,184,134,60,468
USW00014938,40.0972,-92.5433,294.4,MO,KIRKSVILLE RGNL AP,"","",,1948,2022,1948,2022,1948,2022,1948,2021,1948,2018,235,234,202,245,426
USW00014939,40.8508,-96.7475,362.7,NE,LINCOLN MUNI AP,"","",72551,1948,2022,1948,2022,1948,2022,1948,2022,1948,2022,293,293,293,326,295
USW00014940,43.1544,-93.3269,373.4,IA,MASON CITY MUNI AP,"","",,1948,2022,1948,2022,1948,2022,1948,2022,1948,2022,345,345,348,364,333
USW00014941,41.9856,-97.4353,472.7,NE,NORFOLK KARL STEFAN AP,GSN,"",72556,1945,2022,1945,2022,1945,2022,1946,2022,1946,2022,345,345,345,346,345
USW00014943,42.3914,-96.3792,333.8,IA,SIOUX CITY GATEWAY AP,"","",72557,1948,2022,1948,2022,1948,2022,1948,2022,1948,2022,345,345,345,345,345
USW00014944,43.5878,-96.7289,435.9,SD,SIOUX FALLS,"","",72651,1932,2022,1932,2022,1932,2022,1932,2022,1932,2022,345,345,345,345,345
USW00014946,44.9047,-97.1494,532.8,SD,WATERTOWN RGNL AP,"",HCN,,1893,2022,1893,2022,1893,2022,1893,2022,1902,2022,361,362,341,448,577
USW00014991,44.8664,-91.4878,269.7,WI,EAU CLAIRE RGNL AP,"","",,1949,2022,1949,2022,1949,2022,1949,2022,1949,2022,345,346,345,313,310
USW00022010,29.3783,-100.9269,304.5,TX,DEL RIO INTL AP,"","",72261,1951,2022,1951,2022,1951,2022,1951,2022,1951,2022,346,346,347,302,331
USW00022536,21.9839,-159.3405,30.5,HI,LIHUE WSO AP 1020.1,GSN,"",91165,1950,2022,1950,2022,1950,2022,1950,2015,1950,2015,345,346,345,289,288
USW00023009,33.3075,-104.5083,1112.2,NM,ROSWELL IND AIR PK,"",HCN,72268,1946,2022,1946,2022,1946,2022,1946,2022,1946,2022,306,306,305,291,278
USW00023023,31.9433,-102.1889,874.2,TX,MIDLAND ODESSA,"","",72265,1930,2022,1930,2022,1930,2022,1933,2022,1938,2022,345,345,345,370,367
USW00023034,31.3711,-100.4922,576.1,TX,SAN ANGELO,"","",72263,1907,2022,1907,2022,1907,2022,1907,2022,1909,2022,345,345,345,388,386
USW00023042,33.6542,-101.8136,993.3,TX,LUBBOCK,"","",72267,1947,2022,1947,2022,1947,2022,1947,2022,1947,2022,345,345,345,351,348
USW00023044,31.8111,-106.3758,1194.2,TX,EL PASO INTL AP,GSN,HCN,72270,1938,2022,1938,2022,1938,2022,1938,2022,1938,2022,351,351,351,277,393
USW00023047,35.2333,-101.7089,1093.3,TX,AMARILLO,"","",72363,1947,2022,1947,2022,1947,2022,1948,2022,1947,2022,345,345,345,362,349
USW00023048,35.1822,-103.6031,1239,NM,TUCUMCARI MUNI AP,"","",,1948,2022,1948,2022,1948,2022,1948,2022,1948,2022,282,282,272,121,121
USW00023049,35.6169,-106.0889,1933.7,NM,SANTA FE CO MUNI AP,"","",,1941,2022,1941,2022,1941,2022,1941,2022,1941,2022,155,155,134,0,147
USW00023050,35.0419,-106.6156,1618.5,NM,ALBUQUERQUE INTL AP,GSN,"",72365,1931,2022,1931,2022,1931,2022,1931,2022,1931,2022,345,345,345,348,343
USW00023051,36.4486,-103.1539,1511.8,NM,CLAYTON MUNI AIR PK,GSN,HCN,72360,1896,2022,1896,2022,1896,2022,1896,2022,1896,2022,351,351,324,268,301
USW00023052,36.7414,-104.5022,1935.2,NM,RATON MUNI CREWS AP,"","",,1948,2022,1948,2022,1948,2022,1948,2022,1948,2022,254,254,209,27,422
USW00023061,37.4389,-105.8614,2296.1,CO,ALAMOSA SAN LUIS AP,"","",72462,1948,2022,1948,2022,1948,2022,1948,2022,1948,2022,370,370,371,383,384
USW00023062,39.7633,-104.8694,1611.2,CO,DENVER-STAPLETON,"","",72469,1948,2022,1948,2022,1948,2022,1948,2022,1948,2022,351,358,346,364,368
USW00023065,39.3669,-101.7,1112.8,KS,GOODLAND,"","",72465,1895,2022,1895,2022,1895,2022,1895,2022,1895,2022,345,345,345,346,345
USW00023066,39.1342,-108.54,1480.7,CO,GRAND JUNCTION WALKER FLD,GSN,"",72476,1900,2022,1900,2022,1900,2022,1900,2022,1900,2022,345,345,345,345,345
USW00023067,38.0494,-103.5122,1278.3,CO,LA JUNTA MUNI AP,"","",,1945,2022,1945,2022,1945,2022,1945,2022,1945,2022,348,348,333,257,257
USW00023070,37.2622,-104.3378,1749.9,CO,TRINIDAD PERRY STOKES AP,"","",,1948,2022,1948,2022,1948,2022,1948,2022,1948,2022,350,348,347,249,248
USW00023078,32.2622,-107.7206,1310.9,NM,DEMING MUNI AP,"","",,1961,2022,1961,2022,1961,2022,1961,2020,1961,2020,241,241,223,200,152
USW00023090,36.7436,-108.2292,1674.9,NM,FARMINGTON RGNL AP,"","",,1948,2022,1948,2022,1948,2022,1948,2022,1948,2022,210,210,196,105,368
USW00023129,33.8117,-118.1464,9.4,CA,LONG BEACH DAUGHERTY FLD,"","",72297,1949,2022,1949,2022,1949,2022,1949,2019,1949,2019,345,345,346,216,215
USW00023130,34.2097,-118.4892,234.7,CA,VAN NUYS AP,"","",,1949,2022,1949,2022,1949,2022,1949,2020,1949,2020,151,153,158,7,58
USW00023136,34.2167,-119.0833,23.5,CA,CAMARILLO AP,"","",,1952,2022,1952,2022,1952,2022,1952,2020,1952,2020,176,177,167,148,101
USW00023154,39.2953,-114.8467,1908.7,NV,ELY YELLAND FLD AP,GSN,"",72486,1893,2022,1893,2022,1888,2022,1893,2022,1897,2022,352,354,345,325,366
USW00023155,35.4344,-119.0542,149,CA,BAKERSFIELD AP,"","",72384,1937,2022,1937,2022,1937,2022,1937,2022,1937,2022,345,345,345,347,347
USW00023157,37.3711,-118.3581,1250.3,CA,BISHOP AP,"","",72480,1895,2022,1895,2022,1895,2022,1895,2022,1898,2022,346,346,347,387,623
USW00023158,33.6186,-114.7142,120.4,CA,BLYTHE AP,"","",,1948,2022,1948,2022,1948,2022,1948,2019,1948,2019,363,362,351,242,272
USW00023160,32.1314,-110.9553,776.9,AZ,TUCSON INTL AP,"","",72274,1946,2022,1946,2022,1946,2022,1946,2022,1948,2022,346,346,345,339,339
USW00023169,36.0719,-115.1633,649.5,NV,LAS VEGAS MCCARRAN AP,GSN,"",72386,1948,2022,1948,2022,1948,2022,1948,2022,1948,2022,345,345,345,345,345
USW00023174,33.9381,-118.3889,29.6,CA,LOS ANGELES INTL AP,"","",72295,1944,2022,1944,2022,1944,2022,1944,2019,1944,2019,345,345,345,221,234
USW00023182,34.6294,-118.0836,769.3,CA,PALMDALE AP,"","",72382,1934,2022,1934,2022,1948,2022,1948,2020,1948,2020,242,242,212,206,145
USW00023183,33.4278,-112.0039,337.4,AZ,PHOENIX SKY HARBOR INTL AP,GSN,"",72278,1933,2022,1933,2022,1933,2022,1933,2022,1939,2022,345,345,345,249,248
USW00023185,39.4839,-119.7711,1344.2,NV,RENO TAHOE INTL AP,"",HCN,72488,1937,2022,1937,2022,1937,2022,1937,2022,1937,2022,345,345,346,341,376
USW00023190,34.4258,-119.8425,2.7,CA,SANTA BARBARA MUNI AP,"","",72392,1941,2022,1941,2022,1941,2022,1941,2019,1941,2019,353,353,345,239,418
USW00023191,33.405,-118.4158,488.3,CA,AVALON CATALINA AP,"","",72292,1948,2022,1948,2022,1948,2022,1948,2020,1948,2020,209,209,219,56,56
USW00023230,37.7214,-122.2208,1.8,CA,OAKLAND METRO INTL AP,"","",72493,1948,2022,1948,2022,1948,2022,1948,2020,1948,2020,240,245,267,188,173
USW00023237,37.8892,-121.2258,7.9,CA,STOCKTON METRO AP,"","",72492,1948,2022,1948,2022,1948,2022,1948,2022,1948,2021,346,348,346,216,215
USW00023258,37.6242,-120.9506,22.3,CA,MODESTO CITY CO AP,"","",,1927,2022,1927,2022,1906,2022,1910,2022,1948,2020,364,367,348,237,354
USW00023271,38.5556,-121.4169,11.6,CA,SACRAMENTO 5 ESE,"","",,1877,2022,1877,2022,1877,2022,1948,2022,1948,2022,346,345,345,444,22
USW00023272,37.7706,-122.4269,45.7,CA,SAN FRANCISCO DWTN,"","",,1921,2022,1921,2022,1921,2022,1921,2020,1922,2022,347,347,356,458,470
USW00023275,39.1258,-123.2008,183.2,CA,UKIAH MUNI AP,"","",,1949,2022,1949,2022,1949,2022,1949,2022,1949,2022,116,117,107,313,34
USW00024011,46.7708,-100.7603,505.4,ND,BISMARCK,GSN,"",72764,1948,2022,1948,2022,1948,2022,1948,2022,1948,2022,345,345,345,345,345
USW00024013,48.2553,-101.2733,507.5,ND,MINOT INTL AP,"","",,1948,2022,1948,2022,1948,2022,1948,2015,1948,2015,342,342,343,723,748
USW00024018,41.1519,-104.8061,1867.8,WY,CHEYENNE,"",HCN,72564,1915,2022,1915,2022,1915,2022,1915,2022,1939,2022,345,345,345,347,347
USW00024023,41.1214,-100.6694,846.7,NE,NORTH PLATTE RGNL AP,GSN,"",72562,1948,2022,1948,2022,1948,2022,1948,2022,1948,2022,345,345,346,350,348
USW00024025,44.3814,-100.2856,531,SD,PIERRE RGNL AP,"",HCN,72656,1933,2022,1933,2022,1893,2022,1893,2022,1893,2022,348,348,348,1534,1569
USW00024028,41.8706,-103.5931,1202.4,NE,SCOTTSBLUFF HEILIG AP,"","",72566,1893,2022,1893,2022,1893,2022,1893,2022,1895,2022,345,345,345,372,393
USW00024032,42.8783,-100.55,789.4,NE,VALENTINE MILLER FLD,"","",72567,1948,2022,1948,2022,1948,2022,1948,2022,1948,2022,369,369,369,400,392
USW00024033,45.8069,-108.5422,1091.5,MT,BILLINGS LOGAN INTL AP,"","",72677,1948,2022,1948,2022,1948,2022,1948,2022,1948,2022,345,345,345,349,347
USW00024036,47.0492,-109.4578,1263.4,MT,LEWISTOWN MUNI AP,"","",,1896,2022,1896,2022,1896,2022,1896,2022,1896,2022,346,346,345,273,361
USW00024089,42.8975,-106.4636,1627,WY,CASPER NATRONA CO AP,"","",72569,1948,2022,1948,2022,1948,2022,1948,2022,1948,2022,345,345,345,458,451
USW00024090,44.0433,-103.0536,963.2,SD,RAPID CITY RGNL AP,"","",72662,1948,2022,1948,2022,1948,2022,1948,2019,1948,2019,348,348,351,389,344
USW00024091,40.51,-101.62,996.1,NE,IMPERIAL MUNI AP,"","",,1951,2022,1951,2022,1950,2022,1950,2021,1950,2020,201,201,194,144,233
USW00024110,47.2078,-119.3192,364.5,WA,MOSES LAKE GRANT CO AP,"","",,1949,2022,1949,2022,1949,2022,1949,2017,1949,2018,188,188,163,64,317
USW00024121,40.8289,-115.7886,1533.1,NV,ELKO RGNL AP,"",HCN,,1890,2022,1888,2022,1888,2022,1888,2022,1900,2022,345,345,345,345,413
USW00024127,40.7781,-111.9694,1287.8,UT,SALT LAKE CITY INTL AP,"","",72572,1948,2022,1948,2022,1948,2022,1948,2022,1948,2022,345,345,345,352,350
USW00024128,40.9017,-117.8081,1309.4,NV,WINNEMUCCA MUNI AP,GSN,HCN,72583,1877,2022,1877,2022,1877,2022,1877,2022,1893,2022,345,345,345,319,353
USW00024131,43.5667,-116.2406,857.7,ID,BOISE AIR TERMINAL,GSN,"",72681,1940,2022,1940,2022,1940,2022,1940,2022,1940,2022,345,345,345,345,345
USW00024137,48.6033,-112.3753,1169.8,MT,CUT BANK MUNI AP,"",HCN,72769,1903,2022,1903,2022,1903,2022,1903,2022,1903,2022,372,371,372,304,360
USW00024143,47.4733,-111.3822,1116.8,MT,GREAT FALLS INTL AP,"",HCN,72775,1937,2022,1937,2022,1937,2022,1937,2022,1937,2022,345,345,346,370,369
USW00024144,46.6056,-111.9636,1166.8,MT,HELENA RGNL AP,GSN,HCN,72772,1938,2022,1938,2022,1938,2022,1939,2022,1939,2022,370,370,372,379,456
USW00024149,46.3747,-117.0156,437.7,ID,LEWISTON NEZ PERCE CO AP,"",HCN,72783,1948,2022,1948,2022,1948,2022,1948,2022,1948,2022,352,352,351,326,316
USW00024152,45.5114,-118.4247,1134.8,OR,MEACHAM,"","",,1948,2022,1948,2022,1948,2022,1948,2022,1948,2018,230,231,217,309,613
USW00024153,46.9208,-114.0925,972.9,MT,MISSOULA INTL AP,"","",72773,1948,2022,1948,2022,1948,2022,1948,2022,1948,2022,345,345,345,346,345
USW00024155,45.6906,-118.8528,461.8,OR,PENDLETON,GSN,"",72688,1928,2022,1928,2022,1928,2022,1928,2022,1928,2022,345,345,345,490,480
USW00024156,42.9203,-112.5711,1364.9,ID,POCATELLO RGNL AP,GSN,"",72578,1939,2022,1939,2022,1939,2022,1939,2022,1942,2022,345,345,345,349,346
USW00024157,47.6217,-117.5281,717.2,WA,SPOKANE INTL AP,"",HCN,72785,1889,2022,1889,2022,1889,2022,1893,2022,1892,2022,345,345,345,392,395
USW00024160,46.0947,-118.2869,355.4,WA,WALLA WALLA RGNL AP,"",HCN,,1949,2022,1949,2022,1949,2022,1949,2022,1949,2019,362,363,353,321,310
USW00024213,40.8097,-124.1603,6.1,CA,EUREKA WFO WOODLEY ISLAND,GSN,HCN,72594,1941,2022,1941,2022,1941,2022,1941,2022,1941,2022,345,345,345,346,346
USW00024217,48.7939,-122.5372,45.4,WA,BELLINGHAM INTL AP,"","",,1949,2022,1949,2022,1949,2022,1949,2020,1949,2020,355,355,357,245,328
USW00024221,44.1278,-123.2206,107.6,OR,EUGENE MAHLON SWEET AP,"","",72693,1938,2022,1938,2022,1938,2022,1938,2022,1938,2022,346,346,350,236,407
USW00024225,42.3811,-122.8722,395.3,OR,MEDFORD ROGUE VLY AP,"","",72597,1928,2022,1928,2022,1928,2022,1928,2022,1928,2022,345,345,345,306,520
USW00024227,46.9733,-122.9033,57.3,WA,OLYMPIA AP,GSN,"",72792,1941,2022,1941,2022,1941,2022,1941,2021,1941,2021,356,356,348,254,248
USW00024229,45.5908,-122.6003,5.8,OR,PORTLAND INTL AP,"","",72698,1938,2022,1938,2022,1938,2022,1939,2022,1939,2022,345,345,345,346,346
USW00024231,43.2389,-123.3547,160,OR,ROSEBURG RGNL AP,"","",,1900,2022,1900,2022,1899,2022,1899,2020,1903,2020,160,162,134,126,423
USW00024233,47.4444,-122.3139,112.8,WA,SEATTLE TACOMA INTL AP,"","",72793,1948,2022,1948,2022,1948,2022,1948,2022,1948,2022,345,345,348,263,353
USW00024243,46.5683,-120.5428,324.3,WA,YAKIMA AIR TERMINAL,"","",72781,1946,2022,1946,2022,1946,2022,1946,2022,1946,2019,345,347,345,340,329
USW00024259,41.7806,-122.4717,803.1,CA,MONTAGUE SISKIYOU CO AP,"","",,1948,2022,1948,2022,1948,2022,1948,2018,1948,2018,144,144,133,60,60
USW00024286,41.7803,-124.2367,17.1,CA,CRESCENT CITY MCNAMARA AP,"","",,1949,2022,1949,2022,1949,2022,1949,2022,1949,2022,129,130,113,419,37
USW00025308,55.0389,-131.5786,33.2,AK,ANNETTE ISLAND AP,GSN,"",70398,1941,2019,1941,2019,1941,2019,1941,2018,1941,2018,346,345,345,420,372
USW00025309,58.3567,-134.5639,4.9,AK,JUNEAU INTL AP,"","",70381,1936,2022,1936,2022,1936,2022,1936,2022,1936,2022,347,346,348,350,365
USW00025339,59.5119,-139.6711,10.1,AK,YAKUTAT STATE AP,GSN,"",70361,1917,2022,1917,2022,1917,2022,1917,2018,1917,2018,345,345,345,354,345
USW00025501,57.7511,-152.4856,24.4,AK,KODIAK AP,"","",70350,1949,2022,1949,2022,1949,2022,1949,2018,1949,2018,349,353,345,354,350
USW00025503,58.6794,-156.6294,19.2,AK,KING SALMON,GSN,"",70326,1942,2022,1942,2022,1942,2022,1942,2019,1942,2019,345,345,345,345,345
USW00025624,55.2208,-162.7325,23.8,AK,COLD BAY AP,GSN,"",70316,1950,2022,1950,2022,1950,2022,1950,2019,1950,2019,345,345,345,347,349
USW00025713,57.1553,-170.2222,10.7,AK,ST PAUL ISLAND AP,GSN,"",70308,1915,2022,1915,2022,1915,2022,1918,2018,1918,2018,345,345,345,361,364
USW00026411,64.8039,-147.8761,131.7,AK,FAIRBANKS INTL AP,GSN,"",70261,1929,2022,1929,2022,1929,2022,1929,2022,1929,2022,345,345,345,345,345
USW00026412,62.9614,-141.9292,522.1,AK,NORTHWAY AP,"","",70291,1942,2021,1942,2021,1942,2021,1942,2021,1942,2021,345,345,348,318,514
USW00026451,61.1689,-150.0278,36.6,AK,ANCHORAGE INTL AP,"","",70273,1952,2022,1952,2022,1952,2022,1953,2022,1953,2022,345,345,345,345,345
USW00026510,62.9575,-155.6103,101.5,AK,MCGRATH AP,GSN,"",70231,1941,2022,1941,2022,1939,2021,1939,2019,1939,2022,361,357,345,349,347
USW00026533,66.9161,-151.5089,195.7,AK,BETTLES AP,"","",70174,1951,2022,1951,2022,1951,2022,1951,2022,1951,2022,355,358,345,343,372
USW00026615,60.785,-161.8292,31.1,AK,BETHEL AP,GSN,"",70219,1923,2022,1923,2022,1923,2022,1923,2018,1923,2018,345,345,345,347,346
USW00026616,66.8667,-162.6333,9.1,AK,KOTZEBUE RALPH WEIN AP,GSN,"",70133,1897,2022,1897,2022,1902,2022,1903,2019,1929,2018,345,345,345,345,345
USW00026617,64.5111,-165.44,4,AK,NOME MUNI AP,GSN,"",70200,1900,2022,1900,2022,1900,2022,1906,2022,1906,2018,345,345,345,348,345
USW00027502,71.2833,-156.7814,9.4,AK,BARROW POST ROGERS AP,GSN,"",70026,1901,2022,1901,2022,1901,2022,1901,2019,1901,2019,345,345,345,345,346
USW00093033,32.3336,-104.2581,985.1,NM,CARLSBAD CAVERN CITY AP,"","",,1930,2022,1930,2022,1930,2022,1930,2019,1930,2019,347,347,342,236,237
USW00093037,38.81,-104.6883,1884,CO,COLORADO SPRINGS MUNI AP,"","",72466,1948,2022,1948,2022,1948,2022,1948,2022,1948,2022,345,345,345,348,409
USW00093045,33.2367,-107.2681,1478.3,NM,TRUTH OR CONSEQUENCE AP,"","",72271,1950,2022,1950,2022,1950,2022,1950,2020,1950,2020,343,366,330,261,608
USW00093058,38.29,-104.4983,1438.7,CO,PUEBLO MEM AP,"","",72464,1954,2022,1954,2022,1954,2022,1954,2022,1954,2022,345,345,345,353,376
USW00093129,37.7086,-113.0944,1702.6,UT,CEDAR CITY MUNI AP,"","",,1948,2022,1948,2022,1948,2022,1948,2022,1948,2019,345,345,347,242,257
USW00093193,36.78,-119.7194,101.5,CA,FRESNO YOSEMITE INTL AP,GSN,HCN,72389,1948,2022,1948,2022,1948,2022,1948,2022,1948,2022,345,345,345,345,345
USW00093209,35.6697,-120.6283,246.9,CA,PASO ROBLES MUNI AP,"","",,1948,2022,1948,2022,1948,2022,1948,2019,1948,2019,349,349,347,246,248
USW00093719,35.0678,-77.0481,5.8,NC,NEW BERN CRAVEN CO AP,"","",,1948,2022,1948,2022,1948,2022,1948,2022,1948,2022,330,333,327,206,291
USW00093720,38.3406,-75.5103,14.6,MD,SALISBURY WICOMICO RGNL AP,"","",72398,1948,2022,1948,2022,1948,2022,1948,2022,1948,2022,345,346,349,329,299
USW00093721,39.1667,-76.6833,47.5,MD,BALTIMORE WASH INTL AP,"","",72406,1939,2022,1939,2022,1939,2022,1939,2022,1939,2022,345,345,345,346,345
USW00093729,35.2325,-75.6219,3.4,NC,CAPE HATTERAS AP,GSN,HCN,72304,1957,2022,1957,2022,1957,2022,1957,2022,1957,2022,360,363,349,245,360
USW00093730,39.4494,-74.5672,18.3,NJ,ATLANTIC CITY INTL AP,"","",72407,1958,2022,1958,2022,1958,2022,1958,2022,1958,2022,345,345,345,345,339
USW00093738,38.9408,-77.4636,88.4,VA,WASHINGTON DC DULLES AP,"","",72403,1960,2022,1960,2022,1960,2022,1960,2022,1960,2022,345,345,345,345,353
USW00093801,34.3478,-85.1611,194.8,GA,ROME R B RUSSELL AP,"","",72320,1948,2022,1948,2022,1948,2022,1948,2022,1948,2021,297,297,251,483,853
USW00093805,30.3975,-84.3289,19.2,FL,TALLAHASSEE,"",HCN,72214,1940,2022,1940,2022,1940,2022,1940,2022,1940,2022,346,347,348,213,301
USW00093808,36.9647,-86.4239,160.9,KY,BOWLING GREEN WARREN CO AP,"",HCN,,1893,2022,1893,2022,1893,2022,1893,2022,1899,2022,358,358,329,317,382
USW00093814,39.0431,-84.6717,264.9,KY,CINCINNATI NORTHERN KY AP,"","",72421,1948,2022,1948,2022,1948,2022,1948,2022,1948,2022,345,345,345,370,363
USW00093815,39.9061,-84.2186,304.8,OH,DAYTON INTL AP,"","",72429,1948,2022,1948,2022,1948,2022,1948,2022,1948,2022,346,345,345,397,366
USW00093817,38.0442,-87.5206,121.9,IN,EVANSVILLE REGIONAL AP,GSN,"",72432,1948,2022,1948,2022,1948,2022,1948,2022,1948,2022,345,345,346,463,374
USW00093819,39.7075,-86.2803,240.8,IN,INDIANAPOLIS,"","",72438,1948,2022,1948,2022,1948,2022,1948,2022,1948,2022,345,345,345,343,351
USW00093820,38.0408,-84.6058,298.7,KY,LEXINGTON BLUEGRASS AP,GSN,"",72422,1872,2022,1872,2022,1872,2022,1887,2022,1893,2022,345,345,345,345,356
USW00093821,38.1811,-85.7392,148.7,KY,LOUISVILLE INTL AP,"","",72423,1948,2022,1948,2022,1948,2022,1948,2022,1948,2022,350,350,353,388,410
USW00093822,39.8447,-89.6839,181.1,IL,SPRINGFIELD CAPITAL AP,"","",72439,1901,2022,1901,2022,1901,2022,1901,2022,1901,2022,345,345,346,345,345
USW00093842,32.5161,-84.9422,119.5,GA,COLUMBUS METRO AP,"","",,1948,2022,1948,2022,1948,2022,1948,2022,1948,2016,345,346,345,294,292
USW00093862,34.2622,-88.7714,110,MS,TUPELO RGNL AP,"","",72332,1962,2022,1962,2022,1962,2022,1962,2022,1962,2022,360,366,358,306,332
USW00093909,38.8317,-94.8897,331.3,KS,OLATHE JOHNSON CO AP,"","",72447,1945,2022,1945,2022,1945,2022,1945,2021,1945,2018,194,193,170,168,289
USW00093915,31.3347,-92.5586,25.6,LA,ALEXANDRIA INTL AP,"","",74754,1948,2022,1948,2022,1948,2022,1948,2022,1948,2022,172,172,176,215,105
USW00093919,31.1828,-90.4708,125.9,MS,MCCOMB/PIKE CO/JOHN E LEWIS AP,"","",,1948,2022,1948,2022,1948,2022,1948,2022,1948,2019,352,352,351,302,390
USW00093987,31.2361,-94.7544,87.8,TX,LUFKIN ANGELINA CO AP,"","",,1906,2022,1906,2022,1906,2022,1906,2022,1906,2022,348,348,346,241,241
USW00093989,39.9369,-91.1919,234.4,IL,QUINCY RGNL AP,"","",72443,1948,2022,1948,2022,1948,2022,1948,2022,1948,2022,348,348,358,243,274
USW00094008,48.2138,-106.6213,696.5,MT,GLASGOW INTL AP,GSN,HCN,72768,1948,2022,1948,2022,1948,2022,1948,2022,1948,2022,345,345,345,374,357
USW00094012,48.5428,-109.7633,787.9,MT,HAVRE CITY CO AP,"","",72777,1961,2022,1961,2022,1961,2022,1961,2022,1961,2022,347,347,349,359,326
USW00094014,48.1739,-103.6367,579.7,ND,WILLISTON SLOULIN INTL AP,"","",72767,1894,2019,1894,2019,1894,2019,1894,2015,1894,2015,345,345,345,471,471
USW00094236,42.1469,-121.7242,1244.8,OR,KLAMATH FALLS INTL AP,"","",,1959,2022,1959,2022,1959,2022,1959,2020,1959,2020,180,176,167,70,634
USW00094702,41.1583,-73.1289,1.5,CT,BRIDGEPORT SIKORSKY MEM AP,"","",72504,1948,2022,1948,2022,1948,2022,1948,2022,1948,2022,345,345,345,429,560
USW00094728,40.7789,-73.9692,39.6,NY,NEW YORK CNTRL PK TWR,"",HCN,72506,1869,2022,1869,2022,1869,2022,1869,2022,1888,2022,345,345,345,345,620
USW00094789,40.6386,-73.7622,3.4,NY,NEW YORK JFK INTL AP,"","",74486,1948,2022,1948,2022,1948,2022,1948,2022,1948,2022,345,345,345,345,345
USW00094790,43.9922,-76.0217,96.9,NY,WATERTOWN INTL AP,"","",,1949,2022,1949,2022,1949,2022,1949,2019,1949,2019,351,351,344,242,259
USW00094814,44.3592,-84.6739,350.8,MI,HOUGHTON LK ROSCOMMON AP,"","",72638,1964,2022,1964,2022,1964,2022,1964,2022,1964,2022,345,345,345,355,340
USW00094822,42.1928,-89.0931,222.5,IL,ROCKFORD GTR ROCKFORD AP,"","",72543,1951,2022,1951,2022,1951,2022,1951,2022,1951,2022,345,345,345,385,598
USW00094823,40.4847,-80.2144,366.7,PA,PITTSBURGH INTL AP,GSN,"",72520,1948,2022,1948,2022,1948,2022,1948,2022,1948,2022,345,345,345,345,348
USW00094830,41.5886,-83.8014,203.9,OH,TOLEDO EXPRESS AP,"","",72536,1955,2022,1955,2022,1955,2022,1955,2022,1955,2022,345,345,345,351,328
USW00094846,41.995,-87.9336,200.6,IL,CHICAGO OHARE INTL AP,"","",72530,1958,2022,1958,2022,1958,2022,1958,2022,1958,2022,345,345,346,500,504
USW00094847,42.2314,-83.3308,192.3,MI,DETROIT METRO AP,"","",72537,1958,2022,1959,2022,1958,2022,1958,2022,1958,2022,345,345,345,358,353
USW00094849,45.0717,-83.5644,208.5,MI,ALPENA CO RGNL AP,"","",72639,1916,2022,1916,2022,1916,2022,1916,2022,1916,2022,345,345,345,363,396
USW00094860,42.8939,-85.5447,237.1,MI,GRAND RAPIDS,"","",72635,1963,2022,1963,2022,1963,2022,1963,2022,1963,2022,345,345,345,344,344
USW00094910,42.5544,-92.4011,264.6,IA,WATERLOO MUNI AP,"","",72548,1950,2022,1950,2022,1950,2022,1950,2022,1950,2022,345,345,346,345,347
