ID,LAT,LON,ELEV,ST,NAME,GSN,HCN,WMOID,TMAXf,TMAXl,TMINf,TMINl,PRCPf,PRCPl,SNOWf,SNOWl,SNWDf,SNWDl,natmax,natmin,naprcp,nasnow,nasnwd
USC00010402,31.1819,-87.4389,91.4,AL,ATMORE                        ,   ,   ,     ,1940,2022,1940,2022,1940,2022,1942,2020,1948,2020,363,366,285,277,265
USC00025494,35.0364,-111.0231,1687.1,AZ,METEOR CRATER                 ,   ,   ,     ,1962,2022,1962,2022,1962,2022,1962,2022,1962,2022,92,197,74,67,68
USC00025732,32.4486,-110.7544,2403.7,AZ,MT LEMMON FIRE DEPT           ,   ,   ,     ,1958,2022,1958,2022,1958,2022,1958,2022,1958,2022,154,167,117,174,263
USC00026242,31.9353,-109.2186,1664.2,AZ,PARADISE                      ,   ,   ,     ,1906,2022,1906,2022,1906,2022,1906,2022,1906,2022,73,74,78,103,113
USC00029464,33.7775,-112.5231,513,AZ,WITTMANN 1SE                  ,   ,   ,     ,1930,2020,1930,2020,1923,2020,1923,2020,1923,2020,137,137,119,80,80
USC00033164,36.1956,-93.1061,345,AR,HARRISON                      ,   ,   ,     ,1891,2022,1891,2022,1891,2022,1891,2022,1900,2022,130,131,221,273,309
USC00038084,36.2936,-92.6878,364.2,AR,YELLVILLE 4 N                 ,   ,   ,     ,1964,2019,1964,2019,1944,2019,1944,2019,1944,2019,195,200,203,210,329
USC00044223,32.8489,-115.5667,-19.5,CA,IMPERIAL                      ,   ,   ,     ,1901,2021,1901,2021,1901,2021,1902,2021,1902,2021,343,343,368,309,311
USC00065077,41.4078,-72.9028,54.9,CT,MT CARMEL                     ,   ,   ,     ,1936,2020,1936,2020,1936,2020,1936,2020,1936,2020,234,234,239,347,317
USC00094204,31.8878,-82.5808,76.2,GA,HAZLEHURST                    ,   ,   ,     ,1918,2015,1918,2015,1918,2015,1921,2015,1948,2015,189,221,170,146,146
USC00095204,33.7764,-82.4714,138.4,GA,LINCOLNTON                    ,   ,   ,     ,1892,2021,1892,2021,1893,2021,1945,2021,1948,2021,49,30,288,271,327
USC00102667,42.4261,-112.1253,1482.9,ID,DOWNEY                        ,   ,   ,     ,1895,2022,1895,2022,1895,2022,1895,2022,1901,2022,26,37,24,25,24
USC00107208,42.8917,-112.4086,1472.8,ID,POCATELLO 2 NE                ,   ,   ,     ,1899,2017,1899,2017,1899,2017,1899,2017,1899,2017,161,161,163,213,202
USC00108818,43.8867,-111.7367,1501.1,ID,SUGAR CITY                    ,   ,   ,     ,1907,2022,1907,2022,1907,2022,1907,2022,1909,2022,159,171,361,200,328
USC00109950,44.9628,-115.4961,1539.2,ID,YELLOWPINE                    ,   ,   ,     ,1926,2021,1926,2021,1926,2022,1926,2022,1926,2022,162,163,113,134,262
USC00115825,41.3708,-88.4336,159.7,IL,MORRIS 1 NW                   ,   ,   ,     ,1912,2021,1912,2021,1911,2021,1911,2021,1911,2021,228,231,205,217,282
USC00120852,38.0303,-87.2736,121.9,IN,BOONVILLE 1S                  ,   ,   ,     ,1897,2022,1897,2022,1897,2022,1897,2022,1928,2022,173,173,173,361,317
USC00137594,43.1803,-95.8533,432.8,IA,SHELDON                       ,   ,   ,     ,1899,2019,1899,2019,1899,2022,1899,2022,1899,2022,340,341,339,342,345
USC00137859,43.4231,-95.1394,432.8,IA,SPIRIT LAKE                   ,   ,   ,     ,1893,2022,1893,2022,1893,2022,1893,2022,1899,2022,136,136,136,192,348
USC00138693,42.5736,-95.7181,350.5,IA,WASHTA                        ,   ,   ,     ,1905,2019,1905,2019,1897,2019,1897,2019,1900,2019,128,170,286,342,327
USC00141179,39.8775,-98.3036,503.2,KS,BURR OAK 1N                   ,   ,   ,     ,1900,2020,1900,2020,1900,2020,1900,2020,1900,2020,69,69,183,334,326
USC00147542,39.7772,-98.7783,554.7,KS,SMITH CTR                     ,   ,HCN,     ,1910,2021,1912,2021,1910,2021,1910,2021,1910,2021,352,352,346,352,346
USC00148535,38.9111,-101.5853,1009.2,KS,WALLACE                       ,   ,   ,     ,1903,2022,1903,2022,1893,2022,1892,2022,1893,2022,86,83,82,82,83
USC00157158,38.0969,-83.1189,231.6,KY,SANDY HOOK 1NE                ,   ,   ,     ,1893,2017,1893,2017,1893,2017,1893,2017,1894,2017,127,174,123,85,85
USC00181790,39.6403,-77.6978,162.2,MD,HAGERSTOWN 1 E                ,   ,   ,     ,1899,2021,1899,2021,1899,2021,1899,2021,1901,2021,57,58,63,60,72
USC00188557,38.9719,-76.3381,3,MD,STEVENSVILLE 2SW              ,   ,   ,     ,1926,2021,1926,2021,1926,2021,1926,2021,1927,2021,42,42,51,43,44
USC00211630,46.7053,-92.5239,385.6,MN,CLOQUET                       ,   ,HCN,     ,1911,2021,1911,2021,1911,2021,1911,2021,1911,2021,360,362,358,369,369
USC00221738,33.7367,-90.7444,42.1,MS,CLEVELAND                     ,   ,   ,     ,1901,2021,1901,2021,1901,2021,1901,2021,1901,2021,258,260,292,286,351
USC00232318,40.4906,-92.3706,265.2,MO,DOWNING                       ,   ,   ,     ,1920,2018,1920,2018,1893,2018,1893,2018,1900,2018,55,55,270,178,229
USC00242550,48.7167,-111.4758,1012.9,MT,DUNKIRK 19NNE                 ,   ,   ,     ,1922,2021,1922,2021,1912,2021,1912,2021,1912,2021,233,234,206,205,245
USC00243749,47.4883,-111.2792,1068.3,MT,GREAT FALLS 16ST              ,   ,   ,     ,1892,2019,1892,2019,1892,2019,1892,2019,1896,2019,70,71,291,203,336
USC00244558,48.3042,-114.2636,901.3,MT,KALISPELL GLACIER AP          ,   ,HCN,72779,1896,2022,1896,2022,1896,2022,1896,2022,1899,2022,346,346,347,315,319
USC00245740,46.9244,-114.0911,974.4,MT,MISSOULA 6 NW WFO             ,   ,   ,     ,1893,2022,1893,2022,1893,2022,1893,2022,1902,2022,103,107,108,104,111
USC00250640,40.1306,-99.8278,654.7,NE,BEAVER CITY                   ,   ,HCN,     ,1893,2021,1893,2021,1893,2021,1893,2021,1897,2021,353,356,358,370,361
USC00268160,38.0694,-117.2355,1831.8,NV,TONOPAH                       ,   ,   ,     ,1902,2022,1902,2022,1902,2022,1902,2022,1902,2022,46,47,47,46,46
USC00268988,41.1006,-114.9736,1737.4,NV,WELLS                         ,   ,HCN,     ,1895,2022,1895,2022,1895,2022,1895,2022,1899,2022,268,274,268,319,305
USC00287850,39.5697,-75.4617,5.5,NJ,SALEM                         ,   ,   ,     ,1888,2020,1888,2020,1876,2022,1876,2022,1905,2022,0,0,0,0,0
USC00294366,35.3886,-106.5439,1642.3,NM,JEMEZ DAM                     ,   ,   ,     ,1953,2022,1953,2022,1953,2022,1953,2022,1953,2022,142,141,127,130,177
USC00299284,35.36,-103.4433,1165.9,NM,UTE DAM                       ,   ,   ,     ,1965,2019,1965,2019,1965,2019,1965,2019,1965,2019,223,229,175,355,244
USC00300321,42.9328,-76.5447,234.7,NY,AUBURN                        ,   ,HCN,     ,1897,2022,1897,2022,1897,2022,1897,2022,1897,2022,255,261,260,267,291
USC00304844,43.1878,-78.6092,185.9,NY,LOCKPORT 4E                   ,   ,HCN,     ,1893,2021,1893,2021,1893,2021,1893,2021,1900,2021,307,308,294,242,259
USC00306867,43.5697,-76.1164,121.6,NY,PULASKI                       ,   ,   ,     ,1948,2021,1948,2021,1948,2021,1948,2021,1948,2021,308,316,283,130,122
USC00307742,41.3325,-73.8369,140.8,NY,SHRUB OAK                     ,   ,   ,     ,1950,2021,1950,2021,1950,2022,1950,2022,1950,2022,50,50,54,54,64
USC00308455,44.2756,-75.8369,110,NY,THERESA 4NW                   ,   ,   ,     ,1941,2021,1941,2021,1941,2021,1941,2021,1941,2021,0,0,229,153,241
USC00316349,35.1075,-75.9872,1.2,NC,OCRACOKE                      ,   ,   ,     ,1957,2021,1957,2021,1957,2021,1957,2021,1957,2021,250,307,244,324,298
USC00351407,45.6778,-121.8736,43.3,OR,CASCADE LOCKS                 ,   ,   ,     ,1894,2022,1894,2022,1894,2022,1896,2022,1897,2022,18,18,39,26,25
USC00352800,44.8358,-123.4525,210.3,OR,FALLS CITY 2 SSW              ,   ,   ,     ,1897,2022,1897,2022,1896,2022,1896,2022,1898,2022,124,127,178,232,231
USC00367409,41.33,-77.7381,201.2,PA,RENOVO                        ,   ,   ,     ,1896,2021,1896,2021,1895,2021,1896,2021,1897,2021,357,356,333,310,357
USC00367931,40.7831,-76.8617,128,PA,SELINSGROVE 2 S               ,   ,HCN,     ,1894,2021,1894,2021,1893,2021,1893,2021,1898,2021,280,283,270,287,311
USC00368668,40.8533,-76.7892,175.3,PA,SUNBURY                       ,   ,   ,     ,1957,2021,1957,2021,1926,2021,1926,2021,1926,2021,194,185,236,214,254
USC00395481,43.2358,-97.5714,406,SD,MENNO                         ,   ,HCN,     ,1896,2021,1896,2021,1896,2021,1896,2021,1899,2021,363,366,349,362,370
USC00402680,35.9986,-89.4089,91.4,TN,DYERSBURG                     ,   ,   ,     ,1895,2021,1895,2021,1893,2021,1895,2021,1905,2021,60,59,54,335,323
USC00410586,29.9142,-94.9908,7.9,TX,BAYTOWN                       ,   ,   ,     ,1946,2022,1946,2022,1946,2022,1946,2022,1946,2022,321,315,289,237,292
USC00417944,31.3708,-100.4944,576.1,TX,SAN ANGELO WFO                ,   ,   ,     ,1947,2022,1947,2022,1947,2022,1947,2022,1947,2022,120,121,88,89,89
USC00427064,40.2458,-111.6508,1392.9,UT,PROVO BYU                     ,   ,   ,     ,1916,2022,1916,2022,1916,2022,1916,2022,1916,2022,245,247,250,291,362
USC00437054,44.42,-72.0194,213.4,VT,SAINT JOHNSBURY               ,   ,HCN,72614,1894,2021,1894,2021,1894,2021,1894,2021,1904,2021,345,345,350,352,363
USC00441082,37.0678,-78.9517,124.4,VA,BROOKNEAL                     ,   ,   ,     ,1953,2022,1953,2022,1950,2022,1950,2022,1950,2022,239,269,277,282,297
USC00443272,36.6544,-80.9172,713.5,VA,GALAX WTP                     ,   ,   ,     ,1907,2022,1907,2022,1907,2022,1907,2022,1908,2022,47,46,41,259,291
USC00472973,43.975,-89.8308,288,WI,FRIENDSHIP                    ,   ,   ,     ,1930,2021,1930,2021,1930,2021,1930,2021,1930,2021,148,144,119,110,114
USC00480432,42.5008,-108.7339,2383.8,WY,ATLANTIC CITY                 ,   ,   ,     ,1897,2021,1897,2021,1897,2021,1897,2021,1897,2021,50,76,61,46,95
USC00480585,44.1497,-111.0461,1960.5,WY,BECHLER RVR RS                ,   ,   ,     ,1930,2021,1930,2021,1911,2021,1911,2021,1911,2021,246,248,194,168,219
USC00485612,42.1297,-104.39,1267.4,WY,LINGLE 2WSW                   ,   ,   ,     ,1952,2022,1952,2022,1952,2022,1952,2022,1952,2022,68,70,275,260,360
USC00487375,43.0353,-106.9894,1744.1,WY,POWDER RVR (SCHOOL)           ,   ,   ,     ,1948,2022,1948,2022,1948,2022,1948,2022,1948,2022,53,51,64,44,44
USC00487810,43.645,-104.8414,1292,WY,ROCHELLE 7ENE                 ,   ,   ,     ,1928,2021,1928,2021,1927,2021,1927,2021,1927,2021,310,289,297,289,343
USC00508525,59.4547,-135.3136,10.7,AK,SKAGWAY                       ,   ,   ,70362,1898,2021,1898,2021,1898,2021,1898,2021,1898,2021,156,158,154,147,166
USC00508584,58.1422,-133.7386,8.8,AK,SNETTISHAM PWR PLT            ,   ,   ,     ,1964,2021,1964,2021,1964,2021,1964,2021,1964,2021,179,191,118,124,120
USW00003104,33.6267,-116.1594,-36,CA,DESERT RESORTS RGNL AP        ,   ,   ,     ,1950,2022,1950,2022,1950,2022,1950,2020,1950,2021,359,362,363,319,284
USW00003125,32.8356,-114.3942,98.8,AZ,YUMA PROVING GROUND           ,   ,   ,     ,1955,2021,1955,2021,1955,2021,1955,2021,1955,2021,350,350,345,304,350
USW00003144,32.8342,-115.5786,-17.7,CA,IMPERIAL CO AP                ,   ,   ,     ,1962,2022,1962,2022,1962,2022,1962,2022,1962,2019,247,246,238,166,148
USW00003812,35.4319,-82.5375,645.3,NC,ASHEVILLE RGNL AP             ,   ,   ,72315,1946,2022,1946,2022,1946,2022,1946,2022,1946,2022,345,345,345,345,345
USW00003822,32.13,-81.21,14,GA,SAVANNAH INTL AP              ,   ,HCN,72207,1948,2022,1948,2022,1948,2022,1948,2022,1948,2022,345,345,345,348,315
USW00003859,37.2958,-81.2078,874.8,WV,BLUEFIELD MERCER CO AP        ,   ,   ,     ,1959,2022,1959,2022,1959,2022,1959,2022,1959,2022,353,354,349,337,337
USW00003860,38.365,-82.555,251.2,WV,HUNTINGTON TRI STATE AP       ,   ,   ,72425,1961,2022,1961,2022,1961,2022,1961,2022,1961,2022,345,345,348,294,294
USW00003928,37.6544,-97.4425,406.9,KS,WICHITA                       ,   ,   ,72450,1953,2022,1953,2022,1953,2022,1953,2022,1953,2022,348,345,345,345,345
USW00003932,35.21,-99.12,585.8,OK,CLINTON SHERMAN AP            ,   ,   ,     ,1958,2022,1958,2022,1958,2022,1958,2022,1958,2022,297,295,237,60,173
USW00003940,32.3206,-90.0778,100.6,MS,JACKSON INTL AP               ,   ,   ,72235,1963,2022,1963,2022,1963,2022,1951,2022,1951,2022,345,345,345,299,297
USW00004725,42.1997,-75.985,489.5,NY,BINGHAMTON                    ,   ,HCN,72515,1951,2022,1951,2022,1951,2022,1951,2022,1951,2022,345,345,345,350,355
USW00012834,29.1828,-81.0483,9.4,FL,DAYTONA BEACH INTL AP         ,   ,   ,74787,1937,2022,1937,2022,1937,2022,1948,2022,1948,2022,345,345,345,241,327
USW00012835,26.585,-81.8614,4.6,FL,FT MYERS PAGE FLD AP          ,   ,HCN,     ,1892,2022,1892,2022,1892,2022,1907,2022,1911,2022,330,330,337,212,210
USW00012836,24.555,-81.7522,1.2,FL,KEY WEST INTL AP              ,GSN,HCN,72201,1948,2022,1948,2022,1948,2022,1948,2022,1948,2022,348,349,348,243,331
USW00012839,25.7906,-80.3164,8.8,FL,MIAMI INTL AP                 ,   ,   ,72202,1948,2022,1948,2022,1948,2022,1948,2022,1948,2022,345,345,345,247,246
USW00012841,28.5453,-81.3331,32.9,FL,ORLANDO EXECUTIVE AP          ,   ,   ,     ,1892,2022,1892,2022,1892,2022,1948,2022,1948,2022,231,231,200,103,274
USW00012842,27.9619,-82.5403,5.8,FL,TAMPA INTL AP                 ,GSN,   ,72211,1939,2022,1939,2022,1939,2022,1939,2022,1939,2022,345,345,345,349,346
USW00012843,27.6511,-80.42,8.5,FL,VERO BEACH INTL AP            ,   ,   ,74793,1942,2022,1942,2022,1923,2022,1944,2022,1944,2022,226,226,223,126,126
USW00012844,26.6847,-80.0994,5.8,FL,WEST PALM BEACH INTL AP       ,   ,   ,72203,1938,2022,1938,2022,1938,2022,1938,2022,1940,2022,345,345,346,264,322
USW00012849,26.0719,-80.1536,3.4,FL,FT LAUDERDALE HOLLYWOOD AP    ,   ,   ,74783,1945,2022,1945,2022,1945,2022,1945,2022,1945,2022,126,126,126,0,115
USW00012854,28.7797,-81.2436,16.8,FL,ORLANDO SANFORD AP            ,   ,   ,     ,1945,2022,1945,2022,1945,2022,1945,2022,1945,2022,197,197,189,84,198
USW00012883,28.0206,-81.9219,44.2,FL,LAKELAND                      ,   ,   ,     ,1948,2022,1948,2022,1948,2022,1948,2022,1948,2022,208,208,208,208,213
USW00012904,26.2281,-97.6542,10.4,TX,HARLINGEN RIO GRANDE AP       ,   ,   ,     ,1952,2022,1952,2022,1952,2022,1952,2022,1952,2022,194,194,148,78,264
USW00012907,27.5333,-99.4667,153.9,TX,LAREDO AFB                    ,   ,   ,72252,1965,2022,1965,2022,1965,2022,1965,2022,1965,2022,84,84,113,123,122
USW00012912,28.8614,-96.9303,35.1,TX,VICTORIA RGNL AP              ,   ,   ,72255,1953,2022,1953,2022,1953,2022,1953,2022,1953,2022,345,345,346,265,263
USW00012917,29.9506,-94.0206,4.9,TX,PORT ARTHUR SE TX AP          ,   ,   ,72241,1947,2022,1947,2022,1947,2022,1947,2022,1947,2022,345,345,347,212,269
USW00012919,25.9156,-97.4186,7,TX,BROWNSVILLE                   ,   ,   ,72250,1898,2022,1898,2022,1898,2022,1898,2022,1898,2022,345,345,345,268,302
USW00012924,27.7839,-97.5108,13.7,TX,CORPUS CHRISTI                ,   ,HCN,72251,1948,2022,1948,2022,1948,2022,1948,2022,1948,2022,345,345,345,285,372
USW00012932,27.7411,-98.0247,52.7,TX,ALICE INTL AP                 ,   ,   ,     ,1948,2022,1948,2022,1948,2022,1948,2022,1948,2022,145,143,121,0,0
USW00012935,28.7247,-96.2536,3.7,TX,PALACIOS MUNI AP              ,   ,   ,     ,1943,2022,1943,2022,1943,2022,1943,2022,1943,2022,355,355,349,255,255
USW00012947,28.4567,-99.2183,145.1,TX,COTULLA LA SALLE CO AP        ,   ,   ,     ,1949,2022,1949,2022,1949,2022,1949,2022,1949,2022,246,246,230,124,124
USW00013722,35.8922,-78.7819,126.8,NC,RALEIGH DURHAM INTL AP        ,GSN,   ,72306,1944,2022,1944,2022,1944,2022,1944,2022,1944,2022,345,345,345,345,345
USW00013723,36.0969,-79.9433,271.3,NC,PIEDMONT TRIAD INTL AP        ,   ,   ,72317,1928,2022,1928,2022,1928,2022,1928,2022,1928,2022,345,345,346,345,348
USW00013728,36.5728,-79.3361,174,VA,DANVILLE RGNL AP              ,   ,   ,     ,1945,2022,1945,2022,1945,2022,1945,2022,1946,2022,105,105,107,237,238
USW00013733,37.3208,-79.2067,286.5,VA,LYNCHBURG RGNL AP             ,   ,   ,72410,1944,2022,1944,2022,1944,2022,1944,2022,1944,2022,347,349,345,346,359
USW00013739,39.8683,-75.2311,3,PA,PHILADELPHIA INTL AP          ,   ,   ,72408,1940,2022,1940,2022,1940,2022,1940,2022,1940,2022,345,345,345,345,346
USW00013741,37.3169,-79.9742,358.1,VA,ROANOKE RGNL AP               ,   ,   ,72411,1948,2022,1948,2022,1948,2022,1948,2022,1948,2022,345,345,345,346,358
USW00013743,38.8483,-77.0342,3,VA,WASHINGTON REAGAN AP          ,GSN,   ,72405,1945,2022,1945,2022,1945,2022,1945,2022,1945,2022,345,345,345,345,369
USW00013748,34.2675,-77.8997,10.1,NC,WILMINGTON INTL AP            ,   ,   ,72302,1948,2022,1948,2022,1948,2022,1948,2022,1948,2022,345,345,345,347,349
USW00013786,36.2606,-76.175,4,NC,ELIZABETH CITY CGAS           ,   ,   ,72307,1948,2022,1948,2022,1948,2022,1948,2022,1948,2022,304,304,248,246,245
USW00013841,39.4203,-83.8217,321.9,OH,CINCINNATI                    ,   ,   ,72426,1949,2022,1949,2022,1949,2022,1949,2022,1949,2022,294,294,225,59,62
USW00013865,32.3347,-88.7442,89.6,MS,MERIDIAN KEY FLD              ,GSN,   ,72234,1944,2022,1944,2022,1944,2022,1944,2022,1944,2022,345,345,347,295,306
USW00013866,38.3794,-81.59,277.4,WV,CHARLESTON YEAGER AP          ,   ,   ,72414,1947,2022,1947,2022,1947,2022,1947,2022,1947,2022,345,345,345,348,348
USW00013869,31.5356,-84.1944,57.9,GA,ALBANY SW GA RGNL AP          ,   ,   ,72216,1948,2022,1948,2022,1948,2022,1948,2022,1948,2022,133,133,140,117,50
USW00013870,31.5358,-82.5067,58.8,GA,ALMA BACON CO AP              ,   ,   ,72316,1938,2022,1938,2022,1938,2022,1938,2022,1938,2022,346,346,351,328,328
USW00013871,33.5872,-85.8556,181.1,AL,ANNISTON METRO AP             ,   ,   ,     ,1903,2022,1903,2022,1903,2022,1903,2022,1904,2022,349,351,350,244,302
USW00013872,35.5953,-82.5567,682.1,NC,ASHEVILLE                     ,   ,   ,     ,1876,2022,1876,2022,1876,2022,1876,2022,1895,2022,345,345,349,348,358
USW00013873,33.9481,-83.3275,239.3,GA,ATHENS BEN EPPS AP            ,   ,   ,72311,1944,2022,1944,2022,1944,2022,1945,2022,1947,2022,345,345,345,268,324
USW00013876,33.5656,-86.745,187.5,AL,BIRMINGHAM AP                 ,   ,   ,72228,1930,2022,1930,2022,1930,2022,1930,2022,1930,2022,345,345,345,344,344
USW00013878,31.1522,-81.3908,4.9,GA,BRUNSWICK MALCOLM MCKINNON AP ,   ,   ,     ,1944,2022,1944,2022,1940,2022,1941,2022,1947,2022,347,347,348,267,266
USW00013880,32.8986,-80.0403,12.2,SC,CHARLESTON INTL AP            ,GSN,   ,72208,1937,2022,1937,2022,1937,2022,1937,2022,1937,2022,345,345,345,344,344
USW00013881,35.2236,-80.9553,221.9,NC,CHARLOTTE DOUGLAS AP          ,   ,   ,72314,1939,2022,1939,2022,1939,2022,1939,2022,1939,2022,345,345,345,345,345
USW00013883,33.9486,-81.1186,70.4,SC,COLUMBIA                      ,   ,   ,72310,1948,2022,1948,2022,1948,2022,1948,2022,1948,2022,345,345,345,349,347
USW00013884,30.7797,-86.5225,57.9,FL,CRESTVIEW BOB SIKES AP        ,   ,   ,     ,1948,2022,1948,2022,1948,2022,1948,2022,1948,2022,283,288,303,150,341
USW00013889,30.4844,-81.7019,10.1,FL,JACKSONVILLE                  ,   ,   ,72206,1938,2022,1938,2022,1938,2022,1938,2022,1938,2022,345,345,345,270,265
USW00013895,32.2997,-86.4075,61.6,AL,MONTGOMERY AP                 ,   ,   ,72226,1948,2022,1948,2022,1948,2022,1948,2022,1948,2022,347,347,347,265,264
USW00013939,33.4825,-90.9853,39,MS,GREENVILLE ASOS               ,   ,   ,74768,1953,2022,1953,2022,1953,2022,1953,2022,1953,2022,134,134,99,0,0
USW00013957,32.4506,-93.8411,83.2,LA,SHREVEPORT                    ,GSN,   ,72248,1939,2022,1939,2022,1939,2022,1939,2022,1939,2022,345,345,345,354,348
USW00013959,31.6189,-97.2283,152.4,TX,WACO RGNL AP                  ,   ,   ,72256,1941,2022,1941,2022,1941,2022,1941,2022,1941,2022,345,345,345,352,321
USW00013961,32.8192,-97.3614,209.4,TX,FT WORTH MEACHAM FLD          ,   ,   ,74739,1946,2022,1946,2022,1946,2022,1946,2022,1946,2019,184,184,178,35,154
USW00013962,32.4106,-99.6822,545.6,TX,ABILENE RGNL AP               ,GSN,   ,72266,1948,2022,1948,2022,1948,2022,1948,2022,1948,2022,345,345,345,362,354
USW00013963,34.7272,-92.2389,78.6,AR,LITTLE ROCK AP ADAMS FLD      ,   ,   ,     ,1938,2022,1938,2022,1938,2022,1938,2022,1938,2022,345,345,345,363,347
USW00013966,33.9786,-98.4928,310,TX,WICHITA FALLS MUNI AP         ,   ,   ,72351,1907,2022,1907,2022,1897,2022,1897,2022,1897,2022,347,347,347,346,359
USW00013967,35.3889,-97.6006,391.7,OK,OKLAHOMA CITY WILL ROGERS AP  ,GSN,   ,72353,1948,2022,1948,2022,1948,2022,1948,2022,1948,2022,345,345,345,345,351
USW00013968,36.1994,-95.8872,198.1,OK,TULSA INTL AP                 ,   ,   ,72356,1938,2022,1938,2022,1938,2022,1938,2022,1938,2022,345,345,356,350,349
USW00013969,36.7367,-97.1019,304.8,OK,PONCA CITY MUNI AP            ,   ,   ,72453,1948,2022,1948,2022,1948,2022,1948,2022,1948,2022,348,349,352,245,246
USW00013971,36.2667,-93.1567,418.8,AR,HARRISON BOONE CO AP          ,   ,   ,72345,1948,2022,1948,2022,1948,2022,1948,2022,1948,2022,353,353,354,241,242
USW00013972,32.3542,-95.4025,165.8,TX,TYLER POUNDS FLD              ,   ,   ,     ,1883,2022,1883,2022,1883,2022,1895,2022,1895,2022,143,143,138,89,29
USW00013976,30.205,-91.9875,11.6,LA,LAFAYETTE RGNL AP             ,   ,HCN,     ,1893,2022,1893,2022,1893,2022,1893,2022,1914,2022,350,352,348,240,355
USW00013985,37.7608,-99.9683,789.4,KS,DODGE CITY                    ,GSN,   ,72451,1948,2022,1948,2022,1909,2022,1909,2022,1921,2022,345,345,346,347,347
USW00013994,38.7525,-90.3736,161.8,MO,ST LOUIS LAMBERT INTL AP      ,   ,   ,72434,1938,2022,1938,2022,1938,2022,1938,2022,1938,2022,345,345,345,346,346
USW00013996,39.0725,-95.6261,267,KS,TOPEKA MUNI AP                ,   ,   ,72456,1946,2022,1946,2022,1946,2022,1946,2022,1946,2022,345,345,345,348,347
USW00014605,44.3206,-69.7972,106.7,ME,AUGUSTA STATE AP              ,   ,   ,     ,1948,2022,1948,2022,1948,2022,1948,2022,1948,2019,346,346,345,268,264
USW00014607,46.8706,-68.0172,190.2,ME,CARIBOU MUNI AP               ,GSN,   ,72712,1939,2022,1939,2022,1939,2022,1939,2022,1939,2022,345,345,345,351,350
USW00014711,40.1936,-76.7633,95.1,PA,MIDDLETOWN HARRISBURG INTL AP ,   ,   ,72399,1941,2022,1941,2022,1941,2022,1941,2022,1941,2022,192,192,198,194,182
USW00014712,40.3667,-75.9667,103.9,PA,READING SPAATZ FLD            ,   ,   ,     ,1949,2022,1949,2022,1949,2022,1949,2019,1949,2019,127,127,127,30,208
USW00014732,40.7794,-73.8803,3.4,NY,NEW YORK LAGUARDIA AP         ,   ,   ,72503,1939,2022,1939,2022,1940,2022,1940,2022,1940,2022,345,345,345,345,345
USW00014733,42.9486,-78.7369,211.2,NY,BUFFALO                       ,   ,HCN,72528,1938,2022,1938,2022,1938,2022,1939,2022,1939,2022,345,345,345,358,347
USW00014734,40.6825,-74.1694,2.1,NJ,NEWARK INTL AP                ,   ,   ,72502,1893,2022,1893,2022,1893,2022,1893,2022,1901,2022,345,345,345,345,345
USW00014742,44.4683,-73.15,100.6,VT,BURLINGTON INTL AP            ,GSN,HCN,72617,1940,2022,1940,2022,1940,2022,1943,2022,1943,2022,345,345,345,360,349
USW00014750,43.35,-73.6167,97.8,NY,GLENS FALLS AP                ,   ,   ,72522,1944,2022,1944,2022,1944,2022,1944,2019,1944,2019,348,347,347,249,249
USW00014755,44.2667,-71.2994,1910.2,NH,MT WASHINGTON                 ,GSN,   ,72613,1948,2022,1948,2022,1948,2022,1948,2021,1948,2022,345,345,345,345,346
USW00014763,42.4272,-73.2892,363.9,MA,PITTSFIELD MUNI AP            ,   ,   ,     ,1925,2022,1925,2022,1925,2022,1925,2019,1925,2019,162,162,156,92,205
USW00014768,43.1167,-77.6767,162.5,NY,ROCHESTER GTR INTL AP         ,   ,HCN,72529,1926,2022,1926,2022,1926,2022,1926,2022,1926,2022,345,345,345,349,349
USW00014771,43.1111,-76.1039,125.9,NY,SYRACUSE HANCOCK INTL AP      ,GSN,HCN,72519,1938,2022,1938,2022,1938,2022,1938,2022,1938,2022,345,345,350,345,345
USW00014820,41.4131,-81.86,232.6,OH,CLEVELAND                     ,   ,   ,72524,1938,2022,1938,2022,1938,2022,1938,2022,1938,2022,345,345,345,347,348
USW00014821,39.9914,-82.8808,246.9,OH,COLUMBUS PORT COLUMBUS INTL AP,   ,   ,72428,1948,2022,1948,2022,1948,2022,1948,2022,1948,2022,345,345,345,345,348
USW00014826,42.9667,-83.7494,234.7,MI,FLINT BISHOP INTL AP          ,   ,   ,72637,1948,2022,1948,2022,1948,2022,1948,2022,1948,2022,345,345,345,362,345
USW00014827,40.9706,-85.2064,241.1,IN,FT WAYNE INTL AP              ,   ,   ,72533,1939,2022,1939,2022,1939,2022,1939,2022,1939,2022,345,345,345,346,345
USW00014837,43.1406,-89.3453,264,WI,MADISON DANE RGNL AP          ,   ,   ,72641,1939,2022,1939,2022,1939,2022,1939,2022,1939,2022,345,345,345,372,350
USW00014839,42.955,-87.9044,204.2,WI,MILWAUKEE MITCHELL AP         ,   ,   ,72640,1938,2022,1938,2022,1938,2022,1938,2022,1938,2022,345,345,345,345,345
USW00014852,41.2544,-80.6739,359.7,OH,YOUNGSTOWN RGNL AP            ,   ,   ,72525,1934,2022,1934,2022,1934,2022,1934,2022,1934,2022,345,345,345,338,338
USW00014891,40.8203,-82.5178,394.7,OH,MANSFIELD LAHM MUNI AP        ,   ,   ,72420,1948,2022,1948,2022,1948,2022,1948,2022,1948,2022,345,345,345,360,335
USW00014895,40.9167,-81.4333,368.2,OH,AKRON CANTON RGNL AP          ,   ,   ,72521,1948,2022,1948,2022,1948,2022,1948,2022,1948,2022,345,345,345,336,366
USW00014897,44.9258,-89.6256,360,WI,WAUSAU DWTN AP                ,   ,   ,72646,1941,2022,1941,2022,1941,2022,1941,2022,1941,2022,351,351,347,346,339
USW00014898,44.4983,-88.1111,207.9,WI,GREEN BAY                     ,   ,   ,72645,1886,2022,1886,2022,1886,2022,1886,2022,1889,2022,345,345,345,345,345
USW00014914,46.9253,-96.8111,274.3,ND,FARGO HECTOR INTL AP          ,   ,   ,72753,1891,2022,1891,2022,1891,2022,1892,2022,1942,2022,345,345,345,347,258
USW00014916,47.9428,-97.1839,256.6,ND,GRAND FORKS INTL AP           ,   ,   ,72757,1941,2022,1941,2022,1941,2022,1941,2022,1941,2022,341,341,341,346,341
USW00014918,48.5614,-93.3981,360.6,MN,INTL FALLS INTL AP            ,   ,   ,72747,1906,2022,1906,2022,1906,2022,1907,2022,1906,2022,345,345,345,343,339
USW00014920,43.8789,-91.2528,198.7,WI,LA CROSSE MUNI AP             ,   ,   ,72643,1938,2022,1938,2022,1938,2022,1938,2022,1938,2022,366,355,353,344,346
USW00014923,41.4653,-90.5233,180.4,IL,MOLINE QUAD CITY INTL AP      ,   ,   ,72544,1943,2022,1943,2022,1943,2022,1943,2022,1943,2022,345,345,345,345,266
USW00014925,43.9042,-92.4917,397.5,MN,ROCHESTER INTL AP             ,   ,   ,72644,1893,2022,1893,2022,1893,2022,1893,2022,1908,2022,345,345,346,345,345
USW00014933,41.5339,-93.6531,291.7,IA,DES MOINES INTL AP            ,GSN,   ,72546,1945,2022,1945,2022,1945,2022,1945,2022,1947,2022,346,346,346,345,345
USW00014936,44.3981,-98.2231,390.1,SD,HURON RGNL AP                 ,GSN,   ,72654,1881,2022,1881,2022,1881,2022,1888,2022,1888,2022,345,345,345,345,345
USW00014939,40.8508,-96.7475,362.7,NE,LINCOLN MUNI AP               ,   ,   ,72551,1948,2022,1948,2022,1948,2022,1948,2022,1948,2022,293,293,293,326,295
USW00014940,43.1544,-93.3269,373.4,IA,MASON CITY MUNI AP            ,   ,   ,     ,1948,2022,1948,2022,1948,2022,1948,2022,1948,2022,345,345,348,364,333
USW00014941,41.9856,-97.4353,472.7,NE,NORFOLK KARL STEFAN AP        ,GSN,   ,72556,1945,2022,1945,2022,1945,2022,1946,2022,1946,2022,345,345,345,346,345
USW00014943,42.3914,-96.3792,333.8,IA,SIOUX CITY GATEWAY AP         ,   ,   ,72557,1948,2022,1948,2022,1948,2022,1948,2022,1948,2022,345,345,345,345,345
USW00014944,43.5878,-96.7289,435.9,SD,SIOUX FALLS                   ,   ,   ,72651,1932,2022,1932,2022,1932,2022,1932,2022,1932,2022,345,345,345,345,345
USW00014991,44.8664,-91.4878,269.7,WI,EAU CLAIRE RGNL AP            ,   ,   ,     ,1949,2022,1949,2022,1949,2022,1949,2022,1949,2022,345,346,345,313,310
USW00022010,29.3783,-100.9269,304.5,TX,DEL RIO INTL AP               ,   ,   ,72261,1951,2022,1951,2022,1951,2022,1951,2022,1951,2022,346,346,347,302,331
USW00022536,21.9839,-159.3405,30.5,HI,LIHUE WSO AP 1020.1           ,GSN,   ,91165,1950,2022,1950,2022,1950,2022,1950,2015,1950,2015,345,346,345,289,288
USW00023009,33.3075,-104.5083,1112.2,NM,ROSWELL IND AIR PK            ,   ,HCN,72268,1946,2022,1946,2022,1946,2022,1946,2022,1946,2022,306,306,305,291,278
USW00023023,31.9433,-102.1889,874.2,TX,MIDLAND ODESSA                ,   ,   ,72265,1930,2022,1930,2022,1930,2022,1933,2022,1938,2022,345,345,345,370,367
USW00023042,33.6542,-101.8136,993.3,TX,LUBBOCK                       ,   ,   ,72267,1947,2022,1947,2022,1947,2022,1947,2022,1947,2022,345,345,345,351,348
USW00023047,35.2333,-101.7089,1093.3,TX,AMARILLO                      ,   ,   ,72363,1947,2022,1947,2022,1947,2022,1948,2022,1947,2022,345,345,345,362,349
USW00023048,35.1822,-103.6031,1239,NM,TUCUMCARI MUNI AP             ,   ,   ,     ,1948,2022,1948,2022,1948,2022,1948,2022,1948,2022,282,282,272,121,121
USW00023049,35.6169,-106.0889,1933.7,NM,SANTA FE CO MUNI AP           ,   ,   ,     ,1941,2022,1941,2022,1941,2022,1941,2022,1941,2022,155,155,134,0,147
USW00023050,35.0419,-106.6156,1618.5,NM,ALBUQUERQUE INTL AP           ,GSN,   ,72365,1931,2022,1931,2022,1931,2022,1931,2022,1931,2022,345,345,345,348,343
USW00023051,36.4486,-103.1539,1511.8,NM,CLAYTON MUNI AIR PK           ,GSN,HCN,72360,1896,2022,1896,2022,1896,2022,1896,2022,1896,2022,351,351,324,268,301
USW00023062,39.7633,-104.8694,1611.2,CO,DENVER-STAPLETON              ,   ,   ,72469,1948,2022,1948,2022,1948,2022,1948,2022,1948,2022,351,358,346,364,368
USW00023065,39.3669,-101.7,1112.8,KS,GOODLAND                      ,   ,   ,72465,1895,2022,1895,2022,1895,2022,1895,2022,1895,2022,345,345,345,346,345
USW00023066,39.1342,-108.54,1480.7,CO,GRAND JUNCTION WALKER FLD     ,GSN,   ,72476,1900,2022,1900,2022,1900,2022,1900,2022,1900,2022,345,345,345,345,345
USW00023067,38.0494,-103.5122,1278.3,CO,LA JUNTA MUNI AP              ,   ,   ,     ,1945,2022,1945,2022,1945,2022,1945,2022,1945,2022,348,348,333,257,257
USW00023070,37.2622,-104.3378,1749.9,CO,TRINIDAD PERRY STOKES AP      ,   ,   ,     ,1948,2022,1948,2022,1948,2022,1948,2022,1948,2022,350,348,347,249,248
USW00023078,32.2622,-107.7206,1310.9,NM,DEMING MUNI AP                ,   ,   ,     ,1961,2022,1961,2022,1961,2022,1961,2020,1961,2020,241,241,223,200,152
USW00023090,36.7436,-108.2292,1674.9,NM,FARMINGTON RGNL AP            ,   ,   ,     ,1948,2022,1948,2022,1948,2022,1948,2022,1948,2022,210,210,196,105,368
USW00023129,33.8117,-118.1464,9.4,CA,LONG BEACH DAUGHERTY FLD      ,   ,   ,72297,1949,2022,1949,2022,1949,2022,1949,2019,1949,2019,345,345,346,216,215
USW00023130,34.2097,-118.4892,234.7,CA,VAN NUYS AP                   ,   ,   ,     ,1949,2022,1949,2022,1949,2022,1949,2020,1949,2020,151,153,158,7,58
USW00023136,34.2167,-119.0833,23.5,CA,CAMARILLO AP                  ,   ,   ,     ,1952,2022,1952,2022,1952,2022,1952,2020,1952,2020,176,177,167,148,101
USW00023154,39.2953,-114.8467,1908.7,NV,ELY YELLAND FLD AP            ,GSN,   ,72486,1893,2022,1893,2022,1888,2022,1893,2022,1897,2022,352,354,345,325,366
USW00023155,35.4344,-119.0542,149,CA,BAKERSFIELD AP                ,   ,   ,72384,1937,2022,1937,2022,1937,2022,1937,2022,1937,2022,345,345,345,347,347
USW00023158,33.6186,-114.7142,120.4,CA,BLYTHE AP                     ,   ,   ,     ,1948,2022,1948,2022,1948,2022,1948,2019,1948,2019,363,362,351,242,272
USW00023160,32.1314,-110.9553,776.9,AZ,TUCSON INTL AP                ,   ,   ,72274,1946,2022,1946,2022,1946,2022,1946,2022,1948,2022,346,346,345,339,339
USW00023169,36.0719,-115.1633,649.5,NV,LAS VEGAS MCCARRAN AP         ,GSN,   ,72386,1948,2022,1948,2022,1948,2022,1948,2022,1948,2022,345,345,345,345,345
USW00023174,33.9381,-118.3889,29.6,CA,LOS ANGELES INTL AP           ,   ,   ,72295,1944,2022,1944,2022,1944,2022,1944,2019,1944,2019,345,345,345,221,234
USW00023182,34.6294,-118.0836,769.3,CA,PALMDALE AP                   ,   ,   ,72382,1934,2022,1934,2022,1948,2022,1948,2020,1948,2020,242,242,212,206,145
USW00023183,33.4278,-112.0039,337.4,AZ,PHOENIX SKY HARBOR INTL AP    ,GSN,   ,72278,1933,2022,1933,2022,1933,2022,1933,2022,1939,2022,345,345,345,249,248
USW00023191,33.405,-118.4158,488.3,CA,AVALON CATALINA AP            ,   ,   ,72292,1948,2022,1948,2022,1948,2022,1948,2020,1948,2020,209,209,219,56,56
USW00023230,37.7214,-122.2208,1.8,CA,OAKLAND METRO INTL AP         ,   ,   ,72493,1948,2022,1948,2022,1948,2022,1948,2020,1948,2020,240,245,267,188,173
USW00023237,37.8892,-121.2258,7.9,CA,STOCKTON METRO AP             ,   ,   ,72492,1948,2022,1948,2022,1948,2022,1948,2022,1948,2021,346,348,346,216,215
USW00023258,37.6242,-120.9506,22.3,CA,MODESTO CITY CO AP            ,   ,   ,     ,1927,2022,1927,2022,1906,2022,1910,2022,1948,2020,364,367,348,237,354
USW00023275,39.1258,-123.2008,183.2,CA,UKIAH MUNI AP                 ,   ,   ,     ,1949,2022,1949,2022,1949,2022,1949,2022,1949,2022,116,117,107,313,34
USW00024011,46.7708,-100.7603,505.4,ND,BISMARCK                      ,GSN,   ,72764,1948,2022,1948,2022,1948,2022,1948,2022,1948,2022,345,345,345,345,345
USW00024018,41.1519,-104.8061,1867.8,WY,CHEYENNE                      ,   ,HCN,72564,1915,2022,1915,2022,1915,2022,1915,2022,1939,2022,345,345,345,347,347
USW00024023,41.1214,-100.6694,846.7,NE,NORTH PLATTE RGNL AP          ,GSN,   ,72562,1948,2022,1948,2022,1948,2022,1948,2022,1948,2022,345,345,346,350,348
USW00024033,45.8069,-108.5422,1091.5,MT,BILLINGS LOGAN INTL AP        ,   ,   ,72677,1948,2022,1948,2022,1948,2022,1948,2022,1948,2022,345,345,345,349,347
USW00024036,47.0492,-109.4578,1263.4,MT,LEWISTOWN MUNI AP             ,   ,   ,     ,1896,2022,1896,2022,1896,2022,1896,2022,1896,2022,346,346,345,273,361
USW00024091,40.51,-101.62,996.1,NE,IMPERIAL MUNI AP              ,   ,   ,     ,1951,2022,1951,2022,1950,2022,1950,2021,1950,2020,201,201,194,144,233
USW00024110,47.2078,-119.3192,364.5,WA,MOSES LAKE GRANT CO AP        ,   ,   ,     ,1949,2022,1949,2022,1949,2022,1949,2017,1949,2018,188,188,163,64,317
USW00024127,40.7781,-111.9694,1287.8,UT,SALT LAKE CITY INTL AP        ,   ,   ,72572,1948,2022,1948,2022,1948,2022,1948,2022,1948,2022,345,345,345,352,350
USW00024128,40.9017,-117.8081,1309.4,NV,WINNEMUCCA MUNI AP            ,GSN,HCN,72583,1877,2022,1877,2022,1877,2022,1877,2022,1893,2022,345,345,345,319,353
USW00024131,43.5667,-116.2406,857.7,ID,BOISE AIR TERMINAL            ,GSN,   ,72681,1940,2022,1940,2022,1940,2022,1940,2022,1940,2022,345,345,345,345,345
USW00024137,48.6033,-112.3753,1169.8,MT,CUT BANK MUNI AP              ,   ,HCN,72769,1903,2022,1903,2022,1903,2022,1903,2022,1903,2022,372,371,372,304,360
USW00024143,47.4733,-111.3822,1116.8,MT,GREAT FALLS INTL AP           ,   ,HCN,72775,1937,2022,1937,2022,1937,2022,1937,2022,1937,2022,345,345,346,370,369
USW00024149,46.3747,-117.0156,437.7,ID,LEWISTON NEZ PERCE CO AP      ,   ,HCN,72783,1948,2022,1948,2022,1948,2022,1948,2022,1948,2022,352,352,351,326,316
USW00024153,46.9208,-114.0925,972.9,MT,MISSOULA INTL AP              ,   ,   ,72773,1948,2022,1948,2022,1948,2022,1948,2022,1948,2022,345,345,345,346,345
USW00024156,42.9203,-112.5711,1364.9,ID,POCATELLO RGNL AP             ,GSN,   ,72578,1939,2022,1939,2022,1939,2022,1939,2022,1942,2022,345,345,345,349,346
USW00024160,46.0947,-118.2869,355.4,WA,WALLA WALLA RGNL AP           ,   ,HCN,     ,1949,2022,1949,2022,1949,2022,1949,2022,1949,2019,362,363,353,321,310
USW00024213,40.8097,-124.1603,6.1,CA,EUREKA WFO WOODLEY ISLAND     ,GSN,HCN,72594,1941,2022,1941,2022,1941,2022,1941,2022,1941,2022,345,345,345,346,346
USW00024217,48.7939,-122.5372,45.4,WA,BELLINGHAM INTL AP            ,   ,   ,     ,1949,2022,1949,2022,1949,2022,1949,2020,1949,2020,355,355,357,245,328
USW00024227,46.9733,-122.9033,57.3,WA,OLYMPIA AP                    ,GSN,   ,72792,1941,2022,1941,2022,1941,2022,1941,2021,1941,2021,356,356,348,254,248
USW00024229,45.5908,-122.6003,5.8,OR,PORTLAND INTL AP              ,   ,   ,72698,1938,2022,1938,2022,1938,2022,1939,2022,1939,2022,345,345,345,346,346
USW00024233,47.4444,-122.3139,112.8,WA,SEATTLE TACOMA INTL AP        ,   ,   ,72793,1948,2022,1948,2022,1948,2022,1948,2022,1948,2022,345,345,348,263,353
USW00024243,46.5683,-120.5428,324.3,WA,YAKIMA AIR TERMINAL           ,   ,   ,72781,1946,2022,1946,2022,1946,2022,1946,2022,1946,2019,345,347,345,340,329
USW00024259,41.7806,-122.4717,803.1,CA,MONTAGUE SISKIYOU CO AP       ,   ,   ,     ,1948,2022,1948,2022,1948,2022,1948,2018,1948,2018,144,144,133,60,60
USW00025309,58.3567,-134.5639,4.9,AK,JUNEAU INTL AP                ,   ,   ,70381,1936,2022,1936,2022,1936,2022,1936,2022,1936,2022,347,346,348,350,365
USW00025339,59.5119,-139.6711,10.1,AK,YAKUTAT STATE AP              ,GSN,   ,70361,1917,2022,1917,2022,1917,2022,1917,2018,1917,2018,345,345,345,354,345
USW00025501,57.7511,-152.4856,24.4,AK,KODIAK AP                     ,   ,   ,70350,1949,2022,1949,2022,1949,2022,1949,2018,1949,2018,349,353,345,354,350
USW00025503,58.6794,-156.6294,19.2,AK,KING SALMON                   ,GSN,   ,70326,1942,2022,1942,2022,1942,2022,1942,2019,1942,2019,345,345,345,345,345
USW00025624,55.2208,-162.7325,23.8,AK,COLD BAY AP                   ,GSN,   ,70316,1950,2022,1950,2022,1950,2022,1950,2019,1950,2019,345,345,345,347,349
USW00025713,57.1553,-170.2222,10.7,AK,ST PAUL ISLAND AP             ,GSN,   ,70308,1915,2022,1915,2022,1915,2022,1918,2018,1918,2018,345,345,345,361,364
USW00026411,64.8039,-147.8761,131.7,AK,FAIRBANKS INTL AP             ,GSN,   ,70261,1929,2022,1929,2022,1929,2022,1929,2022,1929,2022,345,345,345,345,345
USW00026451,61.1689,-150.0278,36.6,AK,ANCHORAGE INTL AP             ,   ,   ,70273,1952,2022,1952,2022,1952,2022,1953,2022,1953,2022,345,345,345,345,345
USW00026510,62.9575,-155.6103,101.5,AK,MCGRATH AP                    ,GSN,   ,70231,1941,2022,1941,2022,1939,2021,1939,2019,1939,2022,361,357,345,349,347
USW00026533,66.9161,-151.5089,195.7,AK,BETTLES AP                    ,   ,   ,70174,1951,2022,1951,2022,1951,2022,1951,2022,1951,2022,355,358,345,343,372
USW00026615,60.785,-161.8292,31.1,AK,BETHEL AP                     ,GSN,   ,70219,1923,2022,1923,2022,1923,2022,1923,2018,1923,2018,345,345,345,347,346
USW00026616,66.8667,-162.6333,9.1,AK,KOTZEBUE RALPH WEIN AP        ,GSN,   ,70133,1897,2022,1897,2022,1902,2022,1903,2019,1929,2018,345,345,345,345,345
USW00026617,64.5111,-165.44,4,AK,NOME MUNI AP                  ,GSN,   ,70200,1900,2022,1900,2022,1900,2022,1906,2022,1906,2018,345,345,345,348,345
USW00027502,71.2833,-156.7814,9.4,AK,BARROW POST ROGERS AP         ,GSN,   ,70026,1901,2022,1901,2022,1901,2022,1901,2019,1901,2019,345,345,345,345,346
USW00093033,32.3336,-104.2581,985.1,NM,CARLSBAD CAVERN CITY AP       ,   ,   ,     ,1930,2022,1930,2022,1930,2022,1930,2019,1930,2019,347,347,342,236,237
USW00093129,37.7086,-113.0944,1702.6,UT,CEDAR CITY MUNI AP            ,   ,   ,     ,1948,2022,1948,2022,1948,2022,1948,2022,1948,2019,345,345,347,242,257
USW00093193,36.78,-119.7194,101.5,CA,FRESNO YOSEMITE INTL AP       ,GSN,HCN,72389,1948,2022,1948,2022,1948,2022,1948,2022,1948,2022,345,345,345,345,345
USW00093209,35.6697,-120.6283,246.9,CA,PASO ROBLES MUNI AP           ,   ,   ,     ,1948,2022,1948,2022,1948,2022,1948,2019,1948,2019,349,349,347,246,248
USW00093719,35.0678,-77.0481,5.8,NC,NEW BERN CRAVEN CO AP         ,   ,   ,     ,1948,2022,1948,2022,1948,2022,1948,2022,1948,2022,330,333,327,206,291
USW00093720,38.3406,-75.5103,14.6,MD,SALISBURY WICOMICO RGNL AP    ,   ,   ,72398,1948,2022,1948,2022,1948,2022,1948,2022,1948,2022,345,346,349,329,299
USW00093721,39.1667,-76.6833,47.5,MD,BALTIMORE WASH INTL AP        ,   ,   ,72406,1939,2022,1939,2022,1939,2022,1939,2022,1939,2022,345,345,345,346,345
USW00093729,35.2325,-75.6219,3.4,NC,CAPE HATTERAS AP              ,GSN,HCN,72304,1957,2022,1957,2022,1957,2022,1957,2022,1957,2022,360,363,349,245,360
USW00093730,39.4494,-74.5672,18.3,NJ,ATLANTIC CITY INTL AP         ,   ,   ,72407,1958,2022,1958,2022,1958,2022,1958,2022,1958,2022,345,345,345,345,339
USW00093738,38.9408,-77.4636,88.4,VA,WASHINGTON DC DULLES AP       ,   ,   ,72403,1960,2022,1960,2022,1960,2022,1960,2022,1960,2022,345,345,345,345,353
USW00093805,30.3975,-84.3289,19.2,FL,TALLAHASSEE                   ,   ,HCN,72214,1940,2022,1940,2022,1940,2022,1940,2022,1940,2022,346,347,348,213,301
USW00093814,39.0431,-84.6717,264.9,KY,CINCINNATI NORTHERN KY AP     ,   ,   ,72421,1948,2022,1948,2022,1948,2022,1948,2022,1948,2022,345,345,345,370,363
USW00093819,39.7075,-86.2803,240.8,IN,INDIANAPOLIS                  ,   ,   ,72438,1948,2022,1948,2022,1948,2022,1948,2022,1948,2022,345,345,345,343,351
USW00093820,38.0408,-84.6058,298.7,KY,LEXINGTON BLUEGRASS AP        ,GSN,   ,72422,1872,2022,1872,2022,1872,2022,1887,2022,1893,2022,345,345,345,345,356
USW00093822,39.8447,-89.6839,181.1,IL,SPRINGFIELD CAPITAL AP        ,   ,   ,72439,1901,2022,1901,2022,1901,2022,1901,2022,1901,2022,345,345,346,345,345
USW00093842,32.5161,-84.9422,119.5,GA,COLUMBUS METRO AP             ,   ,   ,     ,1948,2022,1948,2022,1948,2022,1948,2022,1948,2016,345,346,345,294,292
USW00093862,34.2622,-88.7714,110,MS,TUPELO RGNL AP                ,   ,   ,72332,1962,2022,1962,2022,1962,2022,1962,2022,1962,2022,360,366,358,306,332
USW00093909,38.8317,-94.8897,331.3,KS,OLATHE JOHNSON CO AP          ,   ,   ,72447,1945,2022,1945,2022,1945,2022,1945,2021,1945,2018,194,193,170,168,289
USW00093915,31.3347,-92.5586,25.6,LA,ALEXANDRIA INTL AP            ,   ,   ,74754,1948,2022,1948,2022,1948,2022,1948,2022,1948,2022,172,172,176,215,105
USW00093987,31.2361,-94.7544,87.8,TX,LUFKIN ANGELINA CO AP         ,   ,   ,     ,1906,2022,1906,2022,1906,2022,1906,2022,1906,2022,348,348,346,241,241
USW00093989,39.9369,-91.1919,234.4,IL,QUINCY RGNL AP                ,   ,   ,72443,1948,2022,1948,2022,1948,2022,1948,2022,1948,2022,348,348,358,243,274
USW00094012,48.5428,-109.7633,787.9,MT,HAVRE CITY CO AP              ,   ,   ,72777,1961,2022,1961,2022,1961,2022,1961,2022,1961,2022,347,347,349,359,326
USW00094789,40.6386,-73.7622,3.4,NY,NEW YORK JFK INTL AP          ,   ,   ,74486,1948,2022,1948,2022,1948,2022,1948,2022,1948,2022,345,345,345,345,345
USW00094790,43.9922,-76.0217,96.9,NY,WATERTOWN INTL AP             ,   ,   ,     ,1949,2022,1949,2022,1949,2022,1949,2019,1949,2019,351,351,344,242,259
USW00094814,44.3592,-84.6739,350.8,MI,HOUGHTON LK ROSCOMMON AP      ,   ,   ,72638,1964,2022,1964,2022,1964,2022,1964,2022,1964,2022,345,345,345,355,340
USW00094823,40.4847,-80.2144,366.7,PA,PITTSBURGH INTL AP            ,GSN,   ,72520,1948,2022,1948,2022,1948,2022,1948,2022,1948,2022,345,345,345,345,348
USW00094830,41.5886,-83.8014,203.9,OH,TOLEDO EXPRESS AP             ,   ,   ,72536,1955,2022,1955,2022,1955,2022,1955,2022,1955,2022,345,345,345,351,328
USW00094847,42.2314,-83.3308,192.3,MI,DETROIT METRO AP              ,   ,   ,72537,1958,2022,1959,2022,1958,2022,1958,2022,1958,2022,345,345,345,358,353
USW00094860,42.8939,-85.5447,237.1,MI,GRAND RAPIDS                  ,   ,   ,72635,1963,2022,1963,2022,1963,2022,1963,2022,1963,2022,345,345,345,344,344
USW00094910,42.5544,-92.4011,264.6,IA,WATERLOO MUNI AP              ,   ,   ,72548,1950,2022,1950,2022,1950,2022,1950,2022,1950,2022,345,345,346,345,347
