ID,value,LAT,LON,ELEV,NAME
US1TXAC0002,15.6129568106312,33.8281,-98.5492,305.7,WICHITA FALLS 5.2 SSW         
US1TXAC0003,21.4149659863946,33.5838,-98.6298,323.7,ARCHER CITY 0.7 SSW           
US1TXAG0001,27.4731861198738,31.3213,-94.8445,91.1,LUFKIN 7.0 W                  
US1TXAG0002,29.6329824561404,31.1464,-94.3856,94.2,ZAVALLA 2.0 ESE               
US1TXAG0003,36.2715736040609,31.3034,-94.7627,75.3,LUFKIN 3.0 SW                 
US1TXAR0005,23.5517477724469,28.0497,-97.0531,4.9,ROCKPORT 0.6 N                
US1TXAR0006,19.1902368987796,28.0825,-97.0626,3.4,ROCKPORT 3.0 NNW              
US1TXAR0008,16.7225042301184,27.9727,-97.1349,6.1,ARANSAS PASS 6.1 NNW          
US1TXAS0002,21.8503236245955,29.8925,-96.489,118.9,NEW ULM 0.1 ENE               
US1TXAS0004,18.9632738719832,29.9515,-96.2544,84.4,BELLVILLE 0.4 NE              
US1TXAS0005,26.5315391084945,29.7757,-96.1581,59.1,SEALY 0.3 WNW                 
US1TXAS0006,26.0824915824916,29.8029,-96.1211,55.8,SAN FELIPE 1.0 WNW            
US1TXAS0007,34.4582763337893,29.7967,-96.1394,53.6,SEALY 1.9 NNE                 
US1TXAT0001,17.9816513761468,29.0654,-98.516,146,POTEET 4.1 ENE                
US1TXAT0021,13.9875222816399,28.9789,-98.5837,139.6,JOURDANTON 5.2 NNW            
US1TXAT0026,17.8147368421053,29.0478,-98.655,155.8,POTEET 4.9 W                  
US1TXBEE017,18.0538336052202,28.5335,-97.7747,95.4,NORMANNA 0.5 ENE              
US1TXBEL001,22.3418066273264,31.0229,-97.2493,158.5,TEMPLE 8.5 SE                 
US1TXBEL002,23.1323141802847,31.0855,-97.4649,189.9,BELTON 1.2 N                  
US1TXBEL005,25.8673670387393,31.076,-97.6773,256,HARKER HEIGHTS 1.7 NW         
US1TXBEL008,23.4387254901961,31.1239,-97.4733,210.9,BELTON 3.9 N                  
US1TXBEL009,24.4576163161249,31.1231,-97.5284,230.4,BELTON 5.4 NW                 
US1TXBEL010,21.5856031128405,30.9294,-97.524,205.1,SALADO 1.5 S                  
US1TXBEL016,27.1320224719101,31.0306,-97.3496,173.1,TEMPLE 4.7 S                  
US1TXBEL021,23.2556862745098,31.0264,-97.2539,159.1,TEMPLE 8.1 SE                 
US1TXBEL023,22.7010869565217,31.067,-97.4564,175.6,BELTON 0.4 E                  
US1TXBEL024,20.8515021459227,31.0984,-97.4816,203.9,BELTON 2.3 NNW                
US1TXBEL025,20.659035159444,31.0581,-97.7326,279.2,KILLEEN 2.9 SSW               
US1TXBEL027,21.4306878306878,31.1636,-97.2694,188.7,TROY 3.1 SE                   
US1TXBEL028,27.7696793002916,31.1022,-97.4426,176.2,TEMPLE 4.7 W                  
US1TXBEL029,24.5063752276867,31.0529,-97.3897,180.4,TEMPLE 3.5 SSW                
US1TXBLC004,24.9754901960784,30.2589,-98.5274,410.9,JOHNSON CITY 7.3 W            
US1TXBLC006,21.2576335877863,30.0912,-98.3297,366.4,BLANCO 5.5 E                  
US1TXBLC010,21.3850931677019,30.3055,-98.4088,358.1,JOHNSON CITY 2.2 N            
US1TXBLC012,22.6837769328264,30.0921,-98.3927,387.1,BLANCO 1.8 ESE                
US1TXBLC016,20.628453038674,30.2835,-98.4103,357.5,JOHNSON CITY 0.7 NNW          
US1TXBLC020,15.2265625,30.3004,-98.5435,438.6,JOHNSON CITY 7.9 WNW          
US1TXBND002,17.3501805054152,29.7437,-99.5323,513.9,VANDERPOOL 1.4 SE             
US1TXBND008,17.1643835616438,29.7453,-98.9804,396.5,PIPE CREEK 3.0 NW             
US1TXBND013,19.8011667476908,29.711,-98.9123,396.2,PIPE CREEK 1.5 SE             
US1TXBND019,27.0505279034691,29.6212,-98.9364,376.4,LAKEHILLS 1.2 NNE             
US1TXBND022,19.3525513585156,29.8431,-99.119,491.9,BANDERA 8.6 NNW               
US1TXBND023,16.4818114328137,29.7202,-99.1262,414.8,BANDERA 3.2 W                 
US1TXBND029,18.8248663101604,29.7714,-99.0161,448.4,BANDERA 4.7 NE                
US1TXBND033,18.0034364261168,29.73,-99.0073,380.7,BANDERA 4.0 E                 
US1TXBND041,14.3671232876712,29.7759,-99.1063,427.6,BANDERA 4.0 NNW               
US1TXBRK003,10.1175917215428,27.1059,-98.2058,45.1,FALFURRIAS 8.9 SSW            
US1TXBRL007,23.1,30.5475,-96.5282,82.6,TUNIS 0.2 NW                  
US1TXBRN002,20.7160493827161,31.7555,-98.8697,447.4,BROWNWOOD 6.7 ENE             
US1TXBRS001,10.2395833333333,30.2764,-103.5797,1567,ALPINE 7.9 SE                 
US1TXBRS011,3.77258805513017,29.37,-103.63,926.9,TERLINGUA 3.4 NNW             
US1TXBRT002,17.9791666666667,30.5505,-98.2409,240.2,MARBLE FALLS 2.7 SE           
US1TXBRT003,20.1838919925512,30.8474,-98.363,360,BUCHANAN DAM 7.4 NNE          
US1TXBRT005,19.7046470062556,30.5873,-98.2788,251.5,MARBLE FALLS 0.7 NW           
US1TXBRT006,17.9053694843169,30.4975,-98.2258,281,SPICEWOOD 4.4 NW              
US1TXBRT013,19.3856312731115,30.5995,-98.3976,253.9,HIGHLAND HAVEN 1.3 SW         
US1TXBRT014,19.8129305776365,30.8588,-98.4125,314.9,BUCHANAN DAM 7.3 N            
US1TXBRT025,19.7054421768708,30.4497,-98.1546,288.3,SPICEWOOD 2.5 SW              
US1TXBRT037,18.3542234332425,30.7395,-98.3655,282.5,BURNET 8.2 W                  
US1TXBRT046,19.9092409240924,30.4589,-98.1176,251.8,SPICEWOOD 2.6 ESE             
US1TXBRT048,27.0963855421687,30.8144,-98.2392,460.2,BURNET 3.7 N                  
US1TXBRT054,21.027027027027,30.5793,-98.2791,234.7,MARBLE FALLS 0.4 W            
US1TXBRT055,25.0718232044199,30.5944,-98.2561,296.6,MARBLE FALLS 1.4 NE           
US1TXBRT056,29.2118380062305,30.6149,-98.0877,346.9,BERTRAM 9.1 SSW               
US1TXBRT057,29.3224755700326,30.8476,-98.3773,402,BURNET 10.6 NW                
US1TXBRZ017,31.7958620689655,29.3912,-95.2353,11.3,ALVIN 2.9 SSE                 
US1TXBRZ020,28.3536121673004,29.0296,-95.451,3,LAKE JACKSON 0.9 SSW          
US1TXBRZ021,23.6790697674419,29.1696,-95.4068,7.3,ANGLETON 1.3 E                
US1TXBST007,18.3386747509744,30.1306,-97.3025,134.1,BASTROP 1.2 N                 
US1TXBST019,18.0019083969466,30.2154,-97.3284,128,BASTROP 7.2 N                 
US1TXBST035,22.7533805537669,30.0403,-97.3581,124.1,BASTROP 5.9 SSW               
US1TXBST036,23.7657935285054,30.116,-97.3226,113.1,BASTROP 1.0 WNW               
US1TXBST041,21.1379585326954,30.1249,-97.4497,153.9,CEDAR CREEK 4.1 NE            
US1TXBST042,21.4941956882255,30.1709,-97.2373,173.7,BASTROP 5.7 NE                
US1TXBST043,22.1110162254483,30.0378,-97.5696,159.1,DALE 7.6 N                    
US1TXBST046,26.2826633165829,30.1683,-97.2529,156.4,BASTROP 4.9 NE                
US1TXBST049,21.0293453724605,30.2199,-97.2575,154.8,MCDADE 4.6 SSW                
US1TXBST051,21.3018575851393,30.0547,-97.2496,120.4,BASTROP 5.2 SE                
US1TXBST058,20.2003311258278,30.172,-97.4901,127.4,CEDAR CREEK 5.9 N             
US1TXBST061,20.4673202614379,30.2212,-97.3242,129.2,BASTROP 7.6 N                 
US1TXBST068,19.9692307692308,30.0841,-97.3173,110.9,BASTROP 2.1 SSW               
US1TXBST069,28.1382636655949,30.0934,-97.4856,130.1,CEDAR CREEK 1.0 ENE           
US1TXBWE001,32.2556538839725,33.5058,-94.6173,125.3,DE KALB 0.1 SSW               
US1TXBXR008,21.7989608313349,29.5925,-98.4071,285.9,HOLLYWOOD PARK 4.7 E          
US1TXBXR011,23.1515517936316,29.5728,-98.4775,275.2,HILL COUNTRY VILLAGE 1.2 SE   
US1TXBXR014,23.5906099166301,29.572,-98.678,321,HELOTES 1.0 ENE               
US1TXBXR015,19.8980392156863,29.3387,-98.5987,209.1,LACKLAND AFB 3.5 SSE          
US1TXBXR027,22.1821974965229,29.7013,-98.6841,406.9,SCENIC OAKS 0.8 SW            
US1TXBXR028,19.4533099517755,29.5187,-98.6178,278,LEON VALLEY 1.6 N             
US1TXBXR032,18.7312851579403,29.5898,-98.4119,270.1,HOLLYWOOD PARK 4.4 E          
US1TXBXR048,21.7716424894712,29.5903,-98.4579,269.1,HOLLYWOOD PARK 1.7 ESE        
US1TXBXR058,17.6764839148165,29.609,-98.4313,278.9,HOLLYWOOD PARK 3.3 ENE        
US1TXBXR065,20.3588351431392,29.6474,-98.4178,314.6,HOLLYWOOD PARK 5.2 NE         
US1TXBXR095,19.3795298726739,29.517,-98.675,285,HELOTES 3.7 SSE               
US1TXBXR121,20.8601583113457,29.4147,-98.4959,199.9,SAN ANTONIO 3.0 S             
US1TXBXR129,19.7551136363636,29.6711,-98.5087,397.8,TIMBERWOOD PARK 3.0 SW        
US1TXBXR133,18.1400730816078,29.5215,-98.3768,248.4,WINDCREST 0.3 NNE             
US1TXBXR134,21.9294871794872,29.4921,-98.1911,196.9,MARION 6.3 SW                 
US1TXBXR135,22.0215384615385,29.4856,-98.4335,225.6,TERRELL HILLS 1.0 NE          
US1TXBXR136,22.7784055241682,29.4337,-98.7417,274.9,LACKLAND AFB 7.8 WNW          
US1TXBXR138,20.2242178447277,29.4894,-98.6593,255.7,LEON VALLEY 2.8 W             
US1TXBXR146,22.3670053795577,29.7348,-98.6425,411.2,FAIR OAKS RANCH 0.4 WSW       
US1TXBXR163,22.1328725038402,29.5049,-98.6428,254.2,LEON VALLEY 1.9 WNW           
US1TXBXR168,19.9628787878788,29.6201,-98.4169,278,HOLLYWOOD PARK 4.3 ENE        
US1TXBXR169,16.1179361179361,29.3032,-98.4791,173.1,SAN ANTONIO 10.8 S            
US1TXBXR177,26.0490797546012,29.5502,-98.4595,232.3,HILL COUNTRY VILLAGE 3.0 SE   
US1TXBXR180,19.5053304904051,29.7024,-98.6369,389.5,LEON SPRINGS 2.6 N            
US1TXBXR181,25.0792682926829,29.614,-98.5392,333.5,SAN ANTONIO 13.3 NNW          
US1TXBXR184,24.037147102526,29.5291,-98.5529,281.6,SAN ANTONIO 8.0 NNW           
US1TXBXR189,16.0716332378224,29.5271,-98.5452,277.1,SAN ANTONIO 7.7 NNW           
US1TXBXR192,22.6242424242424,29.599,-98.7127,367.9,HELOTES 2.4 NNW               
US1TXBXR203,22.1610169491525,29.4347,-98.6837,273.4,SAN ANTONIO 10.8 W            
US1TXBXR205,19.3425605536332,29.5289,-98.3312,235.3,CONVERSE 1.6 NW               
US1TXBXR213,17.8917050691244,29.4762,-98.7667,291.7,HELOTES 7.7 SW                
US1TXBXR215,15.4379746835443,29.6476,-98.4338,318.2,HOLLYWOOD PARK 4.5 NE         
US1TXBXR221,21.1122112211221,29.6001,-98.3795,306.3,SELMA 3.9 WNW                 
US1TXCHD003,11.6234887737478,34.4318,-100.222,579.4,CHILDRESS 0.4 WNW             
US1TXCHK001,29.2690444738001,32.1361,-95.2564,124.4,BULLARD 3.7 E                 
US1TXCHM008,34.7896749521989,29.8722,-94.8893,13.1,MONT BELVIEU 1.5 NNW          
US1TXCKE002,15.3064516129032,31.9548,-100.2725,600.2,BRONTE 5.0 NNE                
US1TXCLD001,20.0068088969587,29.8639,-97.8583,170.1,MARTINDALE 1.7 NNW            
US1TXCLD013,20.3764145324598,29.7995,-97.6745,153,LOCKHART 5.2 S                
US1TXCLD015,24.7674740484429,29.8973,-97.7861,183.2,MAXWELL 1.5 NE                
US1TXCLD027,25.5963302752294,29.9222,-97.7231,174,LOCKHART 4.3 NW               
US1TXCLH009,22.0804953560372,28.4153,-96.7055,1.8,SEADRIFT 0.6 E                
US1TXCLL008,25.5195911413969,33.028,-96.783,226.2,PLANO 2.4 WSW                 
US1TXCLL011,28.6051364365971,33.1685,-96.693,221.3,MCKINNEY 3.1 SW               
US1TXCLL018,22.4273658830621,33.0539,-96.8371,205.7,PLANO 5.3 W                   
US1TXCLL019,18.3867463335144,33.0275,-96.7846,223.4,PLANO 2.5 WSW                 
US1TXCLL020,19.4852203011712,33.1636,-96.5432,166.1,LOWRY CROSSING 0.3 SSE        
US1TXCLL023,25.1964188822572,33.1334,-96.6003,187.1,FAIRVIEW 1.5 ESE              
US1TXCLL026,24.4111705288176,33.1927,-96.6288,184.1,MCKINNEY 1.6 ESE              
US1TXCLL030,26.1085150571132,33.3127,-96.5827,176.8,ANNA 3.7 SSW                  
US1TXCLL033,24.366576819407,32.9921,-96.7397,203.3,RICHARDSON 2.2 NW             
US1TXCLL040,22.8473684210526,33.1719,-96.8117,215.8,FRISCO 1.9 N                  
US1TXCLL044,26.4326579261025,33.0005,-96.6116,171.9,MURPHY 0.9 SSW                
US1TXCLN001,17.607732406603,32.4836,-99.1161,445,CISCO 10.5 NW                 
US1TXCLR006,24.5185185185185,29.7891,-96.477,100,NEW ULM 7.2 S                 
US1TXCML003,23.7996640067199,29.721,-98.1655,252.1,NEW BRAUNFELS 3.1 WNW         
US1TXCML004,23.3382716049383,29.6701,-98.1275,202.7,NEW BRAUNFELS 2.4 SSW         
US1TXCML006,26.8338264299803,29.8374,-98.3987,316.1,SPRING BRANCH 5.6 SSE         
US1TXCML007,44.883701188455,29.8341,-98.4016,330.1,SPRING BRANCH 4.0 SSE         
US1TXCML008,22.6146907216495,29.7779,-98.2031,326.7,NEW BRAUNFELS 7.2 NW          
US1TXCML009,21.122852233677,29.7954,-98.068,253.9,NEW BRAUNFELS 7.0 NNE         
US1TXCML011,22.9749419953596,29.7519,-98.3616,346.9,TIMBERWOOD PARK 7.7 ENE       
US1TXCML012,24.592799503414,29.874,-98.3038,342,CANYON LAKE 2.5 W             
US1TXCML024,21.610321969697,29.7505,-98.3986,316.4,BULVERDE 4.3 ESE              
US1TXCML025,20.3052380952381,29.6426,-98.3213,300.8,GARDEN RIDGE 1.8 WNW          
US1TXCML029,23.3619866284623,29.7653,-98.1865,296.3,NEW BRAUNFELS 5.9 NW          
US1TXCML034,21.0729319627998,29.8407,-98.3772,315.8,CANYON LAKE 7.3 WSW           
US1TXCML035,22.7698170731707,29.734,-98.2021,279.8,NEW BRAUNFELS 5.5 WNW         
US1TXCML040,25.424408014572,29.705,-98.1154,186.5,NEW BRAUNFELS 0.1 ENE         
US1TXCML041,20.8385982230997,29.7427,-98.1009,205.1,NEW BRAUNFELS 2.8 NNE         
US1TXCML048,33.137339055794,29.9454,-98.3706,362.1,CANYON LAKE 8.1 NW            
US1TXCML049,23.3905529953917,29.8318,-98.3358,385.9,CANYON LAKE 5.3 SW            
US1TXCML061,19.7739776951673,29.7075,-98.2843,296.3,NEW BRAUNFELS 10.0 W          
US1TXCML079,20.7723684210526,29.7043,-98.2012,277.7,NEW BRAUNFELS 5.0 W           
US1TXCML080,25.5598958333333,29.7879,-98.077,235.3,NEW BRAUNFELS 6.3 NNE         
US1TXCML095,23.568115942029,29.7569,-98.3856,323.4,BULVERDE 4.2 ENE              
US1TXCML111,23.0201149425287,29.7651,-98.3656,392.3,BULVERDE 5.5 ENE              
US1TXCML112,24.4692556634304,29.9511,-98.3224,352.3,SPRING BRANCH 7.5 NE          
US1TXCMN003,20.0888252148997,32.0173,-98.7593,356.6,COMANCHE 12.2 NW              
US1TXCMR001,21.9337511190689,26.0344,-97.5465,15.8,RANCHO VIEJO 0.7 E            
US1TXCMR008,18.6668526785714,25.8523,-97.4175,11,BROWNSVILLE 6.4 SE            
US1TXCMR016,21.502254283138,25.9751,-97.4919,10.1,BROWNSVILLE 3.5 N             
US1TXCMR021,20.3497172683776,26.0771,-97.4759,11,LOS FRESNOS 0.3 NE            
US1TXCMR032,17.9140786749482,26.1718,-97.7517,14.9,HARLINGEN 4.3 WSW             
US1TXCMR035,16.6251303441084,26.334,-97.4785,3.7,RIO HONDO 9.4 NE              
US1TXCMR051,42.9425087108014,25.9232,-97.4813,7.9,BROWNSVILLE 0.1 SSE           
US1TXCMR069,16.8797327394209,26.1266,-97.1704,1.5,SOUTH PADRE ISLAND 1.1 N      
US1TXCMR070,18.0829596412556,26.1301,-97.6306,10.4,SAN BENITO 0.6 SSE            
US1TXCRK012,10.0552200172563,30.4281,-101.3439,695.2,OZONA 20.9 SSW                
US1TXCRK024,13.6610407876231,30.4248,-101.1596,649.5,OZONA 19.6 S                  
US1TXCRL003,23.8484082870136,31.0916,-97.89,311.2,KEMPNER 6.7 ENE               
US1TXCRL004,22.7142857142857,31.3371,-97.5704,233.2,GATESVILLE 12.0 SE            
US1TXDA0003,26.3385641428011,32.863,-96.845,159.1,UNIVERSITY PARK 3.1 WNW       
US1TXDA0004,24.8864838864839,32.9321,-96.5769,164.9,ROWLETT 2.3 NW                
US1TXDA0013,34.839378238342,32.7091,-96.8383,178.3,DALLAS 7.2 SW                 
US1TXDA0016,27.4048804780877,32.6698,-96.9216,214.6,DUNCANVILLE 1.7 NNW           
US1TXDA0026,32.384561891516,32.7476,-96.5493,139.9,MESQUITE 3.3 ESE              
US1TXDA0035,18.379012345679,32.9575,-96.7479,183.8,RICHARDSON 2.4 WSW            
US1TXDA0036,24.372,32.5548,-96.9574,238.7,CEDAR HILL 1.8 S              
US1TXDA0039,23.5679214402619,32.8656,-96.6901,176.2,DALLAS 6.6 NE                 
US1TXDK0001,12.9777158774373,33.5989,-100.8508,751,DICKENS 1.8 SSW               
US1TXDL0003,8.72338308457712,36.0833,-102.6567,1238.1,DALHART 8.1 W                 
US1TXDM0002,17.2118997912317,28.5633,-99.8354,170.7,CARRIZO SPRINGS 3.0 NNE       
US1TXDM0003,16.7554644808743,28.5179,-99.8645,189.6,CARRIZO SPRINGS 0.6 SSW       
US1TXDN0001,26.5823359471729,33.2191,-97.0532,168.6,SHADY SHORES 3.9 N            
US1TXDN0003,23.9673144876325,33.407,-97.2522,251.2,SANGER 5.4 NW                 
US1TXDN0008,22.7515151515152,33.0562,-97.0703,180.1,FLOWER MOUND 2.3 NE           
US1TXDN0009,23.0554758488761,33.2955,-96.855,185.6,CELINA 4.4 WSW                
US1TXDN0015,22.159209157128,33.3504,-97.2063,210.9,SANGER 1.8 WSW                
US1TXDN0021,23.7087741132545,33.2282,-96.9597,176.2,LINCOLN PARK 0.8 ENE          
US1TXDN0032,21.7431693989071,33.2008,-97.0031,168.2,OAK POINT 1.4 NNW             
US1TXDN0036,18.753112033195,33.0046,-97.2601,185.3,ROANOKE 1.6 W                 
US1TXDN0039,19.6980306345733,33.1872,-96.8962,174.7,LITTLE ELM 2.5 NE             
US1TXDN0041,21.7213114754098,33.1299,-97.1855,196.3,ARGYLE 1.4 NNW                
US1TXDW0005,17.2189746046957,28.9987,-97.34,82.9,CUERO 7.3 SSW                 
US1TXDW0007,20.6640909090909,29.3354,-97.2363,125.9,YOAKUM 6.2 WNW                
US1TXED0001,14.8293413173653,29.8355,-100.4084,574.9,ROCKSPRINGS 17.2 SW           
US1TXED0002,13.5846086576301,30.0653,-100.2825,719.9,ROCKSPRINGS 5.4 NW            
US1TXED0012,11.9692138537658,29.9666,-100.3424,709,ROCKSPRINGS 8.5 WSW           
US1TXED0022,14.264483627204,30.0649,-100.023,722.4,ROCKSPRINGS 11.8 ENE          
US1TXED0025,16.8796147672552,29.9284,-100.207,697.1,ROCKSPRINGS 6.2 S             
US1TXED0026,14.6149193548387,29.9427,-100.0903,723.9,ROCKSPRINGS 8.9 SE            
US1TXEL0006,49.2360594795539,32.4903,-96.799,164.9,RED OAK 2.0 SSE               
US1TXEL0007,24.475,32.4778,-96.8147,182.9,PECAN HILL 2.7 WSW            
US1TXEL0010,27.3941384537645,32.5019,-96.8983,218.5,OVILLA 2.6 S                  
US1TXEL0014,23.3430107526882,32.5155,-96.8618,177.4,OAK LEAF 0.8 WSW              
US1TXEL0017,26.8435897435897,32.4408,-96.9348,205.1,MIDLOTHIAN 5.2 SE             
US1TXEL0018,24.5474254742547,32.444,-97.0033,251.2,MIDLOTHIAN 3.5 S              
US1TXEL0022,19.4457593688363,32.4816,-96.5379,110.3,ENNIS 11.6 NNE                
US1TXEL0023,20.6854663774403,32.4225,-96.8108,173.4,WAXAHACHIE 2.6 ENE            
US1TXEP0017,7.57941929974381,31.8959,-106.4222,1195.1,EL PASO 3.3 NNE               
US1TXEP0038,6.31192660550459,31.8521,-106.5596,1200.3,EL PASO 7.2 W                 
US1TXEP0044,5.72050816696915,31.7989,-106.4642,1211.3,EL PASO 3.8 SSW               
US1TXEP0045,5.59099437148218,31.9267,-106.0428,1380.4,HUECO TANKS SPHS              
US1TXEP0047,7.29834254143646,31.8425,-106.4864,1457.9,FMSP MCKELLIGON               
US1TXEP0049,6.55947955390335,31.916,-106.5152,1466.4,FMSP TOM MAYS                 
US1TXEP0051,5.78011472275335,31.773,-106.3445,1209.1,EL PASO 7.6 SE                
US1TXEP0055,5.56410256410256,31.8457,-106.5432,1237.5,EL PASO 6.2 W                 
US1TXEP0058,4.38274336283186,31.8162,-106.5158,1265.5,EL PASO 5.1 WSW               
US1TXEP0059,5.23695652173913,31.7744,-106.2954,1221.3,EL PASO 11.3 ENE              
US1TXEP0061,5.17616580310881,31.6796,-106.1858,1229.3,HORIZON CITY 0.7 NNE          
US1TXEP0062,7.50501672240803,31.6633,-106.2514,1130.5,SPARKS 1.0 SW                 
US1TXEP0064,8.31391585760518,31.8179,-106.4509,1224.7,EL PASO 2.3 SSW               
US1TXER0001,19.1280765724704,32.2308,-98.2311,405.1,STEPHENVILLE 1.2 NW           
US1TXER0004,19.8552739165985,32.2522,-98.2359,410.3,STEPHENVILLE 2.6 NNW          
US1TXES0002,19.9956834532374,32.4438,-98.9866,470.3,CISCO 4.1 N                   
US1TXFA0005,36.7828200972447,31.1577,-96.8565,95.4,REAGAN 6.0 SW                 
US1TXFB0002,22.9136363636364,29.6945,-95.8264,42.1,FULSHEAR 3.5 E                
US1TXFB0005,30.8258845437616,29.6107,-95.6335,29,SUGAR LAND .5 SE              
US1TXFB0011,27.6189683860233,29.5044,-95.5169,18.3,MISSOURI CITY 4.8 SSE         
US1TXFB0012,30.8984287317621,29.6166,-95.6332,21.9,SUGAR LAND 1.0 W              
US1TXFB0022,24.1732909379968,29.5261,-95.7221,25.3,RICHMOND 4.6 SE               
US1TXFL0002,13.7743119266055,34.232,-101.276,972.6,SOUTH PLAINS 2.0 ENE          
US1TXFN0001,39.1342756183746,33.6709,-96.3333,169.2,SAVOY 5.3 NNE                 
US1TXFN0002,27.9936808846762,33.6542,-96.2237,198.1,RAVENNA 1.7 SE                
US1TXFR0010,11.0111524163569,29.05,-99.389,206,PEARSALL 21.1 WNW             
US1TXFS0004,11.1297169811321,32.7195,-100.2512,565.7,SYLVESTER 0.2 SE              
US1TXFT0001,27.8083129584352,31.6334,-95.8063,80.8,OAKWOOD 4.2 NE                
US1TXFY0001,25.0535939470366,29.9484,-97.0694,111.6,SMITHVILLE 6.6 SE             
US1TXFY0002,20.7770786516854,30.0648,-96.6983,132.3,ROUND TOP 0.2 W               
US1TXFY0003,26.9602534562212,30.008,-97.0052,101.2,LA GRANGE 10.2 NW             
US1TXFY0036,19.4221061792863,29.8635,-96.9324,95.7,LA GRANGE 4.5 SW              
US1TXFY0037,19.8508691674291,29.7731,-97.0165,128.9,MULDOON 4.4 SE                
US1TXGA0005,26.2153354632588,33.4204,-96.57,241.1,VAN ALSTYNE 0.2 E             
US1TXGA0007,23.4167893961708,33.7608,-96.5514,238.7,DENISON 0.8 ENE               
US1TXGA0010,24.469320066335,33.7293,-96.8505,214.3,SADLER 3.2 N                  
US1TXGD0003,19.8391153512576,28.6496,-97.3585,42.1,GOLIAD 2.4 SE                 
US1TXGD0004,66.5691489361702,28.7424,-97.6155,79.9,GOLIAD 14.5 WNW               
US1TXGD0008,19.2427983539095,28.7103,-97.4399,65.8,GOLIAD 4.1 NW                 
US1TXGD0012,20.8874614594039,28.8349,-97.4077,82.6,GOLIAD 11.5 N                 
US1TXGD0015,21.5151515151515,28.8915,-97.3821,67.1,WESER 1.9 NW                  
US1TXGD0016,23.3957765667575,28.5825,-97.7006,102.4,BEEVILLE 12.6 NNE             
US1TXGD0022,22.5383867832847,28.7068,-97.1918,36,VICTORIA 15.0 WSW             
US1TXGG0005,29.5538990825688,32.5578,-94.7274,125,LONGVIEW 3.4 NE               
US1TXGM0003,25.6326164874552,30.76,-96.07,103,IOLA 0.9 SSE                  
US1TXGP0017,19.7328207592504,29.5646,-98.0855,196,MCQUEENEY 3.4 SW              
US1TXGP0029,20.681594488189,29.5856,-98.2554,232.6,SCHERTZ 2.2 N                 
US1TXGP0031,20.457690260777,29.6717,-98.0987,189.6,NEW BRAUNFELS 2.5 SSE         
US1TXGP0034,21.5191897654584,29.5996,-98.0355,161.2,MCQUEENEY 0.5 ENE             
US1TXGP0053,18.9342105263158,29.6649,-98.1244,213.4,NEW BRAUNFELS 2.8 S           
US1TXGP0056,18.7940876656473,29.5119,-97.9378,158.2,SEGUIN 5.0 SSE                
US1TXGP0062,22.6850899742931,29.6716,-98.1154,220.7,NEW BRAUNFELS 2.3 S           
US1TXGP0064,22.1741741741742,29.6879,-97.9916,186.5,SEGUIN 7.6 N                  
US1TXGS0012,13.5520939734423,30.2682,-99.2925,657.1,HARPER 3.7 SW                 
US1TXGS0015,18.7389380530973,30.2375,-98.6258,432.8,STONEWALL 2.3 ENE             
US1TXGS0016,17.7567204301075,30.3389,-99.0807,619,FREDERICKSBURG 13.3 WNW       
US1TXGS0018,15.0423000660939,30.2617,-99.0766,617.8,FREDERICKSBURG 12.2 W         
US1TXGS0022,15.4584548104956,30.2589,-98.8561,1502.7,FREDERICKSBURG 1.3 SE         
US1TXGS0025,14.7882615156018,30.4103,-98.773,580.9,WILLOW CITY 4.3 W             
US1TXGS0026,30.2338177014531,30.3833,-98.7321,561.4,FREDERICKSBURG 11.4 NE        
US1TXGS0028,14.7367240089753,30.4105,-98.7712,580.9,WILLOW CITY 4.2 W             
US1TXGS0033,15.6465968586387,30.1567,-98.915,579.4,FREDERICKSBURG 8.3 SSW        
US1TXGS0037,13.8247078464107,30.2657,-98.8777,533.4,FREDERICKSBURG 0.5 SW         
US1TXGS0038,19.7941834451902,30.3783,-99.2497,642.8,HARPER 5.4 N                  
US1TXGS0039,17.8645320197044,30.3711,-99.2528,659.6,HARPER 4.9 N                  
US1TXGV0007,41.3774509803922,29.456,-95.0891,4.9,DICKINSON 1.4 W               
US1TXGV0021,32.1060094530723,29.4941,-95.1188,7.6,LEAGUE CITY 0.9 NW            
US1TXGV0022,30.9384236453202,29.511,-95.0898,6.1,LEAGUE CITY 2.1 NNE           
US1TXGV0024,27.8159292035398,29.4944,-95.1036,7.6,LEAGUE CITY 0.7 NNE           
US1TXGV0025,33.0469116497263,29.512,-95.0994,7.3,LEAGUE CITY 1.5 NE            
US1TXGV0029,35.0709010339734,29.5303,-95.0236,4.6,KEMAH 0.2 WNW                 
US1TXGZ0007,22.0194080543426,29.7178,-97.3414,140.2,WAELDER 3.2 WNW               
US1TXGZ0010,20.8839427662957,29.4461,-97.425,80.8,GONZALES 4.5 SSE              
US1TXHCK003,10.6555386949924,33.76,-102.1035,1024.1,ROUNDUP 0.4 SW                
US1TXHCK004,7.35404255319149,33.743,-102.1194,1026.9,ANTON 5.3 SSE                 
US1TXHDD006,21.2751842751843,32.389,-97.8146,291.4,GRANBURY 3.9 SSW              
US1TXHDL021,13.1389548693587,26.2431,-98.2161,34.7,MCALLEN 2.4 NE                
US1TXHDS004,6.21544715447155,31.0556,-105.0696,1321.3,ALLAMOORE 4.2 SW              
US1TXHDS006,6.84962406015038,31.7809,-105.4716,1314.9,CORNUDAS 0.1 N                
US1TXHDS008,7.81218274111675,31.7691,-105.6188,1382.6,CORNUDAS 8.7 WSW              
US1TXHDS009,8.4916067146283,31.9231,-105.218,1138.7,DELL CITY 1.4 SW              
US1TXHDS010,8.03785488958991,31.1836,-105.3517,1386.5,SIERRA BLANCA 0.7 NNE         
US1TXHLL001,31.6155913978495,31.8741,-97.217,162.8,AQUILLA 1.3 NNE               
US1TXHND003,22.109375,32.2838,-96.0872,113.1,PAYNE SPRINGS 0.2 NNE         
US1TXHND004,22.7080745341615,32.2794,-96.0474,113.4,PAYNE SPRINGS 2.5 E           
US1TXHPK001,27.5448453608247,33.0553,-95.8116,164.9,CUMBY 5.6 SSE                 
US1TXHRN001,35.9090909090909,30.272,-94.2201,18.6,LUMBERTON 1.2 WNW             
US1TXHRN002,30.6205621301775,30.2179,-94.3287,13.7,KOUNTZE 10.6 SSW              
US1TXHRR015,27.6113300492611,30.0022,-95.196,21.6,KINGWOOD 3.9 S                
US1TXHRR020,34.9920948616601,29.7845,-95.372,20.1,HOUSTON 1.4 NE                
US1TXHRR027,31.0029940119761,29.8138,-95.5505,29,BUNKER HILL VILLAGE 3.6 NNW   
US1TXHRR028,35.7958974358974,29.5371,-95.1215,7.6,WEBSTER 0.4 NW                
US1TXHRR031,33.125283446712,29.5453,-95.1821,9.4,FRIENDSWOOD 2.5 NNE           
US1TXHRR032,32.5710367526056,29.6077,-95.2561,14.6,SOUTH HOUSTON 4.0 SSW         
US1TXHRR033,29.0756302521008,30.0553,-95.1564,24.1,KINGWOOD 1.8 E                
US1TXHRR058,28.0920201294033,29.8133,-95.5389,29,SPRING VALLEY 2.7 NW          
US1TXHRR059,29.6092214663643,30.1512,-95.4667,44.2,THE WOODLANDS 1.4 ESE         
US1TXHRR074,28.9233261339093,29.9564,-95.6463,41.8,CYPRESS 3.2 ESE               
US1TXHRR085,34.4671428571429,29.8066,-95.5607,29.3,HOUSTON 11.8 WNW              
US1TXHRR089,31.2586750788644,29.5289,-95.1852,8.5,FRIENDSWOOD 1.4 NNE           
US1TXHRR093,32.86529318542,29.6849,-95.2197,9.1,PASADENA 4.4 WNW              
US1TXHRR094,33.0862068965517,29.6746,-95.2104,9.1,PASADENA 3.6 WNW              
US1TXHRR117,35.9794050343249,30.1135,-95.5748,49.7,TOMBALL 2.7 ENE               
US1TXHRR119,27.9248120300752,29.718,-95.4369,15.8,WEST UNIVERSITY PLACE 0.4 WNW 
US1TXHRR122,26.9467787114846,29.7054,-95.6652,27.7,MISSION BEND 0.8 N            
US1TXHRS001,32.1032366071429,32.5792,-94.5516,106.1,HALLSVILLE 5.4 NNE            
US1TXHRS002,48.2257281553398,32.5805,-94.5801,89,HALLSVILLE 5.5 N              
US1TXHYS001,24.1980337078652,29.9632,-97.918,210,SAN MARCOS 5.8 N              
US1TXHYS003,24.6204379562044,30.0054,-98.029,253,WIMBERLEY 4.4 E               
US1TXHYS007,21.1887211367673,30.1974,-98.0165,385.9,DRIPPING SPRINGS 4.3 E        
US1TXHYS017,19.9636761487965,30.1666,-98.2263,409,DRIPPING SPRINGS 8.4 W        
US1TXHYS019,19.8744827586207,29.9027,-97.9708,228.6,SAN MARCOS 2.9 WNW            
US1TXHYS021,22.187610619469,29.8904,-98.0477,272.8,SAN MARCOS 7.1 W              
US1TXHYS028,24.1669299631385,30.1368,-97.8682,226.8,MANCHACA 2.1 ENE              
US1TXHYS032,24.8532818532819,30.0075,-97.8096,196.9,KYLE 3.8 ENE                  
US1TXHYS039,20.3421633554084,30.2185,-98.0451,336.2,DRIPPING SPRINGS 3.3 NE       
US1TXHYS049,17.9503916449086,30.1619,-98.1876,409,DRIPPING SPRINGS 6.2 WSW      
US1TXHYS052,21.2610993657505,30.2105,-98.1076,393.5,DRIPPING SPRINGS 1.9 NW       
US1TXHYS053,19.7028985507246,30.1306,-98.1064,379.2,DRIPPING SPRINGS 4.1 SSW      
US1TXHYS054,22.2360043907794,30.0215,-98.1813,338.9,WIMBERLEY 5.2 WNW             
US1TXHYS055,24.6952695269527,30.0589,-98.0034,286.5,MOUNTAIN CITY 6.7 WNW         
US1TXHYS056,29.3322784810127,30.1633,-98.0403,321,DRIFTWOOD 2.8 NNW             
US1TXHYS060,24.7911111111111,30.0506,-98.0187,312.4,DRIFTWOOD 5.0 S               
US1TXHYS061,26.1334841628959,29.9015,-98.062,301.4,SAN MARCOS 8.1 W              
US1TXHYS063,27.1068917018284,30.2048,-98.1093,386.2,DRIPPING SPRINGS 1.7 NW       
US1TXHYS065,28.4370139968896,29.8464,-98.0287,289.9,SAN MARCOS 6.3 WSW            
US1TXHYS069,27.7973199329983,29.898,-97.9588,227.1,SAN MARCOS 2.2 NW             
US1TXHYS074,20.2545155993432,29.8575,-97.9421,188.7,SAN MARCOS 1.8 SSW            
US1TXJC0002,23.3046538912788,33.0402,-98.1207,311.5,PERRIN 3.0 ENE                
US1TXJD0005,9.35600907029479,30.5652,-103.8842,1499.9,FORT DAVIS 1.7 SSE            
US1TXJH0002,7.47658402203857,27.2203,-98.9519,209.1,HEBBRONVILLE 17.6 WSW         
US1TXJJ0007,30.184347826087,30.0725,-94.1692,7.3,BEAUMONT 1.8 SW               
US1TXJJ0008,40.2103354487761,30.0874,-94.1389,5.5,BEAUMONT 0.3 E                
US1TXJJ0009,40.1556473829201,30.0527,-94.182,6.7,BEAUMONT 3.3 SW               
US1TXJJ0011,28.8992592592593,30.0225,-94.1555,3.7,BEAUMONT 4.6 S                
US1TXJK0001,23.3096926713948,28.9099,-96.6286,18,EDNA 4.6 SSE                  
US1TXJK0003,25.7666195190948,29.1833,-96.6499,36.6,EDNA 14.5 N                   
US1TXJK0004,28.1761442441054,28.9608,-96.6329,17.7,EDNA 1.3 SE                   
US1TXJN0002,23.7474489795918,32.541,-97.3458,232,BURLESON 1.1 WNW              
US1TXJN0003,25.516228748068,32.3277,-97.4062,239,CLEBURNE 1.5 S                
US1TXJN0013,23.4063400576369,32.4754,-97.2578,236.2,BURLESON 5.7 SE               
US1TXJO0004,13.2628336755647,32.9374,-99.7708,483.7,STAMFORD 2.4 E                
US1TXJS0002,34.6759433962264,30.903,-94.1065,81.1,JASPER 6.7 W                  
US1TXJS0003,34.6093535075653,30.6405,-93.8851,36,KIRBYVILLE 1.5 SE             
US1TXJW0003,20.541188738269,27.9917,-98.0653,88.1,ORANGE GROVE 8.1 WNW          
US1TXJW0006,14.3010625737898,27.9927,-97.9735,64.3,ORANGE GROVE 3.3 NW           
US1TXKL0002,20.1301075268817,27.4214,-97.8236,18,KINGSVILLE 6.5 SSE            
US1TXKM0002,20.2276741903827,30.5695,-99.5996,491,JUNCTION 11.6 ENE             
US1TXKM0003,14.4600938967136,30.4551,-99.7955,524.6,JUNCTION 2.8 SSW              
US1TXKN0004,21.1817052980132,29.856,-98.7774,570.3,BOERNE 5.1 NNW                
US1TXKN0005,20.220091704877,29.8958,-98.5382,346.6,KENDALIA 5.2 SSW              
US1TXKN0007,20.006599208095,29.8737,-98.5854,362.1,FAIR OAKS RANCH 10.0 NNE      
US1TXKN0008,20.3256606990622,29.7667,-98.6465,408.1,FAIR OAKS RANCH 2.2 NNW       
US1TXKN0010,21.0264218540081,29.7541,-98.8202,568.1,BOERNE 6.0 WSW                
US1TXKN0012,17.7131341868184,29.7626,-98.7868,483.1,BOERNE 4.0 WSW                
US1TXKN0014,18.6814645308924,29.7643,-98.6535,401.1,FAIR OAKS RANCH 2.2 NNW       
US1TXKN0015,19.0756920415225,29.8888,-98.5228,361.8,KENDALIA 5.4 S                
US1TXKN0018,18.9765726681128,30.0552,-98.7353,456,COMFORT 11.5 ENE              
US1TXKN0022,17.1149012567325,29.8278,-98.8009,476.7,BOERNE 4.7 WNW                
US1TXKN0027,17.3288910042837,29.8722,-98.6158,382.8,BOERNE 8.8 NE                 
US1TXKN0028,18.8866474543708,29.9101,-98.7625,485.5,BOERNE 8.5 NNW                
US1TXKN0042,18.6151041666667,29.826,-98.653,459.9,BOERNE 5.2 ENE                
US1TXKN0053,19.4018558172734,29.9046,-98.6093,378.9,BOERNE 10.6 NE                
US1TXKN0054,24.9066886870355,29.8042,-98.7332,440.7,BOERNE 0.7 N                  
US1TXKN0056,18.6192660550459,29.8767,-98.5849,364.5,BOERNE 10.5 ENE               
US1TXKN0059,17.6537698412698,29.9147,-98.5498,378.9,BOERNE 13.7 NE                
US1TXKN0060,16.5715835140998,29.8244,-98.5967,436.5,BOERNE 8.4 ENE                
US1TXKN0061,19.6775648252537,29.9717,-98.6992,390.8,BOERNE 12.4 N                 
US1TXKN0065,20.9085213032581,29.7949,-98.7122,428.5,BOERNE 1.2 E                  
US1TXKN0066,21.3343465045593,30.0046,-98.7915,510.5,COMFORT 7.0 ENE               
US1TXKR0003,15.8827763496144,30.1155,-99.2977,542.5,INGRAM 4.4 NW                 
US1TXKR0015,14.3745210727969,30.0219,-99.3642,555.7,INGRAM 8.6 WSW                
US1TXKR0020,16.971444568869,30.0261,-99.141,531.6,KERRVILLE 1.1 SSW             
US1TXKR0030,16.3466593647317,30.1661,-99.3747,584.9,INGRAM 10.2 NW                
US1TXKR0036,17.8566748566749,30.0476,-99.3278,557.5,INGRAM 5.9 WSW                
US1TXKR0038,22.6619365609349,29.9317,-98.9994,463,CENTER POINT 2.4 ESE          
US1TXKR0045,13.7954545454545,30.2344,-99.3212,677.9,HARPER 6.5 SW                 
US1TXKR0050,17.5661538461538,30.1036,-99.2792,549.2,INGRAM 3.1 NW                 
US1TXKR0052,25.3763440860215,29.9645,-99.0234,498,CENTER POINT 2.2 NNE          
US1TXKR0054,17.9171717171717,29.9294,-99.0305,456.6,CENTER POINT 0.5 SE           
US1TXKR0057,18.1729106628242,30.0706,-99.2988,525.2,INGRAM 3.8 W                  
US1TXKR0059,15.4863523573201,30.0784,-99.1763,524,KERRVILLE 3.5 NW              
US1TXKS0003,16.678318375059,28.7991,-98.0844,114,KARNES CITY 12.6 WSW          
US1TXKS0009,17.2340272792534,29.1364,-97.8103,103,GILLETT 1.6 WNW               
US1TXKY0004,12.6002245929253,29.3177,-100.4441,338.6,BRACKETTVILLE 2.0 W           
US1TXKY0013,15.3103448275862,29.3204,-100.4943,342,BRACKETTVILLE 5.1 W           
US1TXKY0015,20.4265873015873,29.3119,-100.6389,328,BRACKETTVILLE 13.8 W          
US1TXLB0002,7.8410008071025,34.18,-102.1398,1100,OLTON 0.2 W                   
US1TXLE0012,23.5142276422764,30.3799,-96.9876,118.3,LEXINGTON 2.7 SSE             
US1TXLE0013,27.9933554817276,30.3202,-97.1079,156.4,LEXINGTON 8.8 SW              
US1TXLK0001,24.0265324794145,33.4543,-101.8908,983.9,WOODROW 2.8 W                 
US1TXLK0006,15.4610148514851,33.5026,-101.9347,1000,LUBBOCK 6.1 SW                
US1TXLK0007,10.9002227171492,33.5572,-101.9681,1003.1,LUBBOCK 6.7 SW                
US1TXLK0014,12.1522566612289,33.5115,-101.926,990,LUBBOCK 5.3 SSW               
US1TXLK0021,13.2556818181818,33.5317,-101.8817,982.1,LUBBOCK 3.1 S                 
US1TXLK0022,10.476859074363,33.6658,-101.8233,996.1,LUBBOCK INTERNATIONAL         
US1TXLK0030,8.56269592476489,33.7952,-102.0621,1030.8,SHALLOWATER 8.3 NNW           
US1TXLK0046,7.18165784832452,33.6738,-101.9863,1014.1,SHALLOWATER 1.2 SSE           
US1TXLK0047,8.08016877637131,33.5326,-101.9949,1006.1,WOLFFORTH 1.9 NNE             
US1TXLK0048,8.04086538461539,33.7667,-101.8752,1013.5,LUBBOCK 13.2 N                
US1TXLK0051,9.61180124223602,33.3986,-101.9356,993,SLIDE 0.6 SSW                 
US1TXLK0054,8.2109634551495,33.8097,-101.9569,1031.4,ABERNATHY 6.6 WSW             
US1TXLK0056,6.74696356275304,33.5508,-101.9342,999.1,LUBBOCK 3.8 WSW               
US1TXLK0057,10.3047091412742,33.5709,-101.914,980.5,LUBBOCK 2.2 W                 
US1TXLK0059,8.03892215568862,33.4414,-102.0177,1007.7,WOLFFORTH 4.6 S               
US1TXLL0007,18.9512317747612,30.4977,-98.3599,370,HORSESHOE BAY 2.7 S           
US1TXLL0019,18.9349289454002,30.535,-98.4006,274,HORSESHOE BAY 2.7 W           
US1TXLL0023,19.1052631578947,30.6572,-98.4521,266.7,KINGSLAND 0.5 S               
US1TXLL0024,21.9244186046512,30.5448,-98.4067,300.8,HORSESHOE BAY 3.1 W           
US1TXLL0026,24.6310483870968,30.749,-98.6662,307.8,LLANO 0.5 ESE                 
US1TXLL0030,20.1035598705502,30.6592,-98.485,261.5,KINGSLAND 1.9 WSW             
US1TXLM0002,26.2225,33.7298,-95.5306,148.1,PARIS 4.5 NNE                 
US1TXLO0005,26.41738449491,28.4673,-98.2462,71.9,CHOKE CANYON DAM NORTH SIDE   
US1TXLO0009,43.2504638218924,28.3638,-98.1405,50.9,GEORGE WEST 2.7 NNW           
US1TXLO0011,17.3389095415118,28.3272,-98.0751,40.8,GEORGE WEST 2.9 E             
US1TXLO0012,17.4312267657993,28.4112,-98.0232,81.1,GEORGE WEST 8.0 NE            
US1TXLO0014,13.7397260273973,28.0847,-97.9172,28.7,SANDIA 5.1 NNW                
US1TXLO0016,17.6666666666667,28.1677,-98.0926,77.7,GEORGE WEST 11.3 S            
US1TXLO0018,16.4821052631579,28.3375,-98.0468,52.1,GEORGE WEST 4.3 E             
US1TXLP0002,20.1124371859296,31.0815,-98.1409,310.9,LAMPASAS 2.7 ENE              
US1TXLS0005,14.1940983606557,28.4534,-99.2184,143,COTULLA 1.6 NE                
US1TXLT0002,23.6559187279152,31.5561,-96.4251,140.8,MEXIA 9.4 SSE                 
US1TXLV0002,24.9068,29.255,-96.76,50,HALLETTSVILLE 17.1 SE         
US1TXLV0004,22.5418006430868,29.4291,-97.141,102.1,SHINER 1.9 E                  
US1TXLV0005,28.4206572769953,29.3324,-96.7612,53,HALLETTSVILLE 13.4 SE         
US1TXLV0020,24.9639325189063,29.3695,-97.0942,89,YOAKUM 6.2 NNE                
US1TXLV0021,20.3371140516698,29.5597,-96.9275,106.1,HALLETTSVILLE 8.0 N           
US1TXLV0022,25.4089979550102,29.2306,-96.9596,60,HALLETTSVILLE 14.8 S          
US1TXLV0023,21.4727272727273,29.4223,-96.9357,78.3,HALLETTSVILLE 1.6 SSE         
US1TXLV0026,19.8678260869565,29.477,-97.1283,100.3,SHINER 4.1 NE                 
US1TXMCL001,27.0856049736968,31.6427,-97.2607,173.1,WACO 6.8 NW                   
US1TXMCL007,24.7142857142857,31.4471,-97.2678,176.5,LORENA 5.5 NW                 
US1TXMCL010,24.8749074759438,31.5496,-97.1872,81.7,WACO 1.4 S                    
US1TXMCL012,21.0433333333333,31.5801,-97.3243,180.4,CRAWFORD 7.5 ENE              
US1TXMDL006,9.5675355450237,32.0063,-102.1463,868.4,MIDLAND 3.0 WSW               
US1TXMDL018,6.63456790123457,31.8521,-102.0761,854,MIDLAND 12.1 S                
US1TXMDL025,5.56765676567657,31.9022,-102.2731,876,ODESSA 4.8 ENE                
US1TXMDN002,20.3752045826514,29.435,-98.8147,313,CASTROVILLE 7.0 NNE           
US1TXMDN011,19.6126038104543,29.3494,-98.8782,229.5,CASTROVILLE 0.3 WNW           
US1TXMDN018,17.9807572936065,29.353,-99.0117,309.4,HONDO 8.8 E                   
US1TXMDN021,16.1099163679809,29.3261,-99.3378,314.6,D'HANIS 3.5 WSW               
US1TXMDN022,15.5511363636364,29.26,-99.13,239.3,HONDO 6.9 SSE                 
US1TXMDN023,15.9870918754746,29.14,-98.9053,197.5,DEVINE 0.4 S                  
US1TXMDN024,16.2185947480483,29.4043,-99.0246,264,HONDO 8.7 ENE                 
US1TXMDN027,16.0821114369501,29.5344,-98.841,348.1,MICO 5.0 E                    
US1TXMDS002,27.1214488636364,30.9023,-95.9182,77.1,MADISONVILLE 3.5 S            
US1TXMLM001,20.9977836879433,30.7409,-97.2138,149.7,THORNDALE 8.8 N               
US1TXMLM002,21.4502762430939,30.6081,-97.0317,146.9,ROCKDALE 3.6 SSW              
US1TXMLM003,20.7277752187932,30.6307,-97.0101,145.1,ROCKDALE 1.7 S                
US1TXMLS002,20.2303754266212,31.528,-98.7243,418.2,MULLIN 3.9 WSW                
US1TXMNG020,30.608527131783,30.3774,-95.6335,61.9,MONTGOMERY 3.8 ESE            
US1TXMNG021,28.8821490467938,30.3976,-95.6954,76.2,MONTGOMERY 0.4 N              
US1TXMNG023,27.948623853211,30.2185,-95.5084,48.8,THE WOODLANDS 4.4 NNW         
US1TXMNG025,32.2081031307551,30.197,-95.5851,62.8,THE WOODLANDS 6.3 WNW         
US1TXMNG026,23.0994371482176,30.1985,-95.4959,44.8,THE WOODLANDS 2.8 N           
US1TXMNG030,27.2469437652812,30.1417,-95.4658,42.7,THE WOODLANDS 1.8 SE          
US1TXMNG031,26.2076749435666,30.3227,-95.4596,60.4,CONROE 0.7 E                  
US1TXNC0004,31.7531565656566,31.3781,-94.4492,69.2,ETOILE 0.9 SW                 
US1TXNC0005,29.1837488457987,31.6985,-94.5236,110.6,NACOGDOCHES 9.5 NE            
US1TXNU0004,17.21602478973,27.752,-97.4129,14,CORPUS CHRISTI 8.0 WNW        
US1TXNU0007,14.3499087591241,27.5905,-97.2247,2.1,CORPUS CHRISTI 9.0 SSE        
US1TXNU0010,16.3686567164179,27.6613,-97.3031,5.2,FLOUR BLUFF 1.6 SW            
US1TXNU0012,16.5318202047174,27.9081,-97.8894,36,ORANGE GROVE 4.5 SE           
US1TXNU0013,17.4659926470588,27.5861,-97.7908,18.9,BISHOP 0.4 ENE                
US1TXNU0015,31.7734597156398,27.8029,-97.3932,-999.9,CORPUS CHRISTI 9.1 NW         
US1TXNU0018,45.232298136646,27.6718,-97.3849,9.1,CORPUS CHRISTI 6.1 WSW        
US1TXNU0038,18.3273638968481,27.8084,-97.4706,13.1,CORPUS CHRISTI 4.8 W          
US1TXNU0045,14.5806100217865,27.6843,-97.3997,7.3,CORPUS CHRISTI 6.7 WSW        
US1TXNU0052,18.2211538461538,27.7337,-97.3799,7.6,CORPUS CHRISTI 4.8 SSE        
US1TXNV0001,25.3035253654342,32.0838,-96.8293,155.4,FROST 1.3 WNW                 
US1TXNV0003,26.2836065573771,32.1629,-96.2684,122.8,KERENS 3.4 NW                 
US1TXNV0004,29.7916666666667,32.106,-96.3405,114.3,POWELL 1.0 SW                 
US1TXNV0005,23.996449704142,32.067,-96.745,163.1,BLOOMING GROVE 2.4 SW         
US1TXOR0001,45.4419795221843,30.0428,-93.8675,7.9,BRIDGE CITY 1.3 NW            
US1TXOR0004,33.3812022900763,30.0822,-93.7345,0.9,ORANGE 2.1 SE                 
US1TXPC0002,9.46560846560847,30.827,-102.0555,793.4,IRAAN 11.0 WSW                
US1TXPC0004,7.48213125406108,30.7052,-102.53,965.9,FORT STOCKTON 24.7 ESE        
US1TXPL0003,41.0935085007728,30.8009,-95.1039,51.8,ONALASKA 0.6 SSE              
US1TXPL0010,26.6218181818182,30.7853,-95.0927,46.6,ONALASKA 1.8 SSE              
US1TXPL0018,28.2845445240532,30.6984,-95.0765,48.2,LIVINGSTON 8.4 W              
US1TXPL0019,28.4364406779661,30.8055,-95.1152,49.4,ONALASKA 0.6 WSW              
US1TXPL0024,29.891760904685,30.6733,-94.9483,57,LIVINGSTON 2.6 SSW            
US1TXPL0025,34.8864864864865,30.6904,-94.7108,79.2,LIVINGSTON 13.4 E             
US1TXPL0027,30.6107011070111,30.8064,-95.1165,54.9,ONALASKA 0.6 WSW              
US1TXPP0002,21.7439759036145,32.9883,-98.1215,323.7,GRAFORD 8.1 ENE               
US1TXPR0005,22.8336034575905,32.6055,-97.9454,244.8,DENNIS 1.4 SW                 
US1TXPR0011,22.1959798994975,32.664,-97.637,272.2,ALEDO 2.9 SW                  
US1TXRD0002,13.1748566748567,34.9968,-101.9307,1093,CANYON 1.2 NNW                
US1TXRK0001,30.0257252326218,32.927,-96.4701,146,ROCKWALL 0.8 WNW              
US1TXRK0006,26.25,32.8832,-96.4843,137.2,ROCKWALL 3.1 SSW              
US1TXRL0008,15.4451277199622,29.7347,-99.7411,497.7,LEAKEY 1.5 ENE                
US1TXRL0016,14.7282728272827,29.8821,-99.9081,648.9,LEAKEY 14.0 NW                
US1TXRN0002,28.4260485651214,32.9133,-95.81,143.3,POINT 3.7 ESE                 
US1TXRS0001,29.9397686477862,32.2171,-94.8743,157.9,HENDERSON 6.1 NW              
US1TXRS0004,33.979797979798,32.1818,-94.9107,120.7,HENDERSON 6.9 WNW             
US1TXRS0008,36.4,32.0718,-94.8628,138.1,HENDERSON 7.0 SSW             
US1TXSE0001,15.5,31.8462,-100.9781,708.1,STERLING CITY 0.7 NE          
US1TXSF0006,17.1921655580192,32.7932,-99.39,545,ALBANY 7.2 NW                 
US1TXSF0007,15.9763271162123,32.7842,-99.4884,541,ALBANY 11.9 WNW               
US1TXSF0008,15.5902118334551,32.8046,-99.4679,545,ALBANY 11.4 WNW               
US1TXSF0009,18.2852983988355,32.8197,-99.317,458.1,ALBANY 6.5 N                  
US1TXSF0010,16.7470760233918,32.783,-99.3712,522.1,ALBANY 5.9 NW                 
US1TXSF0011,18.1327953044754,32.6598,-99.2103,392.9,ALBANY 6.8 SE                 
US1TXSJ0003,32.3493788819876,30.5309,-95.1476,97.8,COLDSPRING 4.3 SSW            
US1TXSM0004,29.7016706443914,32.272,-95.3232,143.9,TYLER 4.1 SSW                 
US1TXSM0007,27.6918833727344,32.5131,-95.4124,175.9,LINDALE 0.6 NW                
US1TXSM0011,30.9985422740525,32.3638,-95.1718,129.2,TYLER 8.1 ENE                 
US1TXSM0016,39.2340909090909,32.2143,-95.234,133.8,WHITEHOUSE 1.2 SW             
US1TXSP0013,13.7315296566077,27.85,-97.2167,11.9,INGLESIDE 1.7 SW              
US1TXSP0018,11.1172248803828,27.8929,-97.3402,11.3,PORTLAND 1.3 NW               
US1TXSR0001,10.6955414012739,36.3336,-102.0668,1125,STRATFORD 0.5 ESE             
US1TXSS0001,17.1615868408321,31.2425,-98.6146,350.8,SAN SABA 7.3 ENE              
US1TXSS0003,20.7045707915273,31.1972,-98.6997,366.1,SAN SABA 1.5 E                
US1TXTG0005,13.3627586206897,31.2467,-100.6723,636.1,KNICKERBOCKER 3.2 SW          
US1TXTG0011,17.0077922077922,31.4476,-100.5166,596.2,SAN ANGELO 3.8 W              
US1TXTG0016,14.0886998784933,31.4318,-100.4853,573.3,SAN ANGELO 2.2 WSW            
US1TXTG0022,15.4121532364597,31.6205,-100.6798,615.4,CARLSBAD 2.4 WNW              
US1TXTG0031,17.2046908315565,31.4097,-100.5028,598.3,SAN ANGELO 3.9 SW             
US1TXTG0034,13.986143187067,31.3722,-100.4884,575.5,SAN ANGELO 5.5 SSW            
US1TXTN0005,26.7767857142857,32.8863,-97.2878,203,WATAUGA 2.4 WNW               
US1TXTN0025,22.2260107160253,32.8604,-97.2977,182.9,BLUE MOUND 2.3 ENE            
US1TXTN0027,24.6295,32.8843,-97.2113,210,NORTH RICHLAND HILLS 1.7 NNE  
US1TXTN0039,25.0154083204931,32.6797,-97.3629,232,FORT WORTH 5.4 SSW            
US1TXTN0040,43.8094827586207,32.8473,-97.1421,183.5,BEDFORD 0.5 W                 
US1TXTN0055,24.2755267423015,32.893,-97.4519,206,FORT WORTH 11.8 NW            
US1TXTN0056,22.8006872852234,32.6784,-97.4516,207.3,BENBROOK 0.6 E                
US1TXTN0057,22.8460227272727,32.7081,-97.4603,207,BENBROOK 2.1 N                
US1TXTN0062,24.5147150907952,32.8768,-97.1938,196,NORTH RICHLAND HILLS 1.9 NE   
US1TXTN0070,24.4075416968818,32.8361,-97.1941,184.1,HURST 0.8 W                   
US1TXTN0074,21.144597887896,32.8111,-97.2338,167.9,RICHLAND HILLS 0.5 W          
US1TXTN0079,31.348897535668,32.8746,-97.4433,208.8,FORT WORTH 12.5 NW            
US1TXTN0085,19.4826762246117,32.9721,-97.1293,176.2,SOUTHLAKE 1.7 NE              
US1TXTN0086,18.6720647773279,32.7425,-97.3632,173.1,FORT WORTH 1.8 WSW            
US1TXTN0087,23.3014354066986,32.8757,-97.4798,216.1,EAGLE MOUNTAIN 2.4 WSW        
US1TXTN0091,22.4486692015209,32.5916,-97.1107,189.6,MANSFIELD 1.7 NNE             
US1TXTN0093,17.1961722488038,32.5695,-97.0686,173.1,MANSFIELD 2.8 E               
US1TXTN0094,22.4166666666667,32.9205,-97.3022,224.6,FORT WORTH 13.4 N             
US1TXTN0102,20.2418032786885,32.71,-97.3791,182,FORT WORTH 3.9 SW             
US1TXTN0106,19.5015105740181,32.926,-97.3399,235.9,HASLET 2.2 S                  
US1TXTV0009,24.6077405857741,30.3231,-97.828,238.4,WEST LAKE HILLS 2.4 NNW       
US1TXTV0014,22.4134924277191,30.3396,-97.7228,220.1,AUSTIN 2.9 NE(LAMAR&ARPT)     
US1TXTV0019,20.0209944751381,30.43,-97.94,224,LAGO VISTA 3.7 ESE            
US1TXTV0021,20.1562913907285,30.4849,-97.8845,320,JONESTOWN 2.6 E               
US1TXTV0030,24.5734901122394,30.4223,-97.8062,258.5,ANDERSON MILL 2.2 S           
US1TXTV0034,22.0134035423648,30.2188,-97.8087,203.6,SUNSET VALLEY 0.7 SE          
US1TXTV0035,20.0847457627119,30.4439,-97.6117,214.9,PFLUGERVILLE 0.6 ENE          
US1TXTV0043,18.8215504631887,30.4786,-97.6198,207.9,PFLUGERVILLE 2.6 N            
US1TXTV0044,22.6765021459228,30.3207,-97.7502,196.9,AUSTIN 1.0 N(45TH&SHCRK)      
US1TXTV0047,19.3114583333333,30.3142,-97.6728,167,AUSTIN 4.7 E(JORDANPK)        
US1TXTV0049,19.4942178940962,30.3852,-97.6788,210.9,WELLS BRANCH 4.2 S            
US1TXTV0052,23.5629506378259,30.2297,-97.8768,292.3,OAK HILL 1.1 WSW              
US1TXTV0057,24.3657171922686,30.354,-97.7455,214,AUSTIN 3.3 N(LP1&FARWST)      
US1TXTV0068,24.2665670154459,30.429,-97.7374,254.8,JOLLYVILLE 1.6 SSE            
US1TXTV0075,24.9988636363636,30.4198,-97.7581,261.5,JOLLYVILLE 2.1 SSW            
US1TXTV0083,21.0342426001161,30.2816,-97.513,171.6,MANOR 5.1 SSE                 
US1TXTV0087,23.8954785672343,30.3574,-97.7235,229.2,AUSTIN 3.9 NNE                
US1TXTV0096,24.9860228716646,30.1776,-97.7899,213.7,TANGLEWOOD FOREST 2.9 E       
US1TXTV0099,23.8219858156028,30.3234,-97.9165,245.4,BEE CAVE 2.5 ENE              
US1TXTV0114,26.9608626198083,30.2286,-97.8739,284.1,AUSTIN 8.2 WSW                
US1TXTV0117,25.6851851851852,30.3721,-97.8134,217.6,AUSTIN 5.9 NW                 
US1TXTV0118,21.2055335968379,30.3201,-97.6772,167,AUSTIN 4.5 ENE                
US1TXTV0122,23.6339144215531,30.2808,-97.8392,240.8,AUSTIN 5.6 WSW                
US1TXTV0133,18.2223320158103,30.3597,-98.0252,269.7,LAKEWAY 2.8 W                 
US1TXTV0135,32.9830065359477,30.1122,-97.7493,211.2,CREEDMOOR 1.5 NNW             
US1TXTV0141,15.8091024020228,30.4356,-98.0139,276.1,LAGO VISTA 1.5 SW             
US1TXTV0142,26.0861833105335,30.3838,-97.6895,223.7,AUSTIN 6.5 NE                 
US1TXTV0145,23.6746987951807,30.4382,-97.8273,299.3,AUSTIN 12.7 NNW               
US1TXTV0149,26.5255813953488,30.3421,-97.7762,185.9,AUSTIN 2.9 NNW                
US1TXTV0155,21.1857379767828,30.2433,-97.7749,182.3,AUSTIN 4.6 SSW                
US1TXTV0157,22.9799635701275,30.3341,-97.7327,207.3,AUSTIN 2.2 NNE                
US1TXTV0160,29.4707070707071,30.2493,-97.8241,217,ROLLINGWOOD 2.8 SW            
US1TXTV0163,25.9371316306483,30.4769,-97.6118,235,PFLUGERVILLE 2.5 NNE          
US1TXTV0164,27.2565656565657,30.2278,-97.794,205.4,AUSTIN 4.1 SW                 
US1TXTV0165,19.9644351464435,30.1934,-97.7861,216.1,AUSTIN 5.7 SSW                
US1TXTV0206,24.9753265602322,30.3421,-98.1146,325.8,DRIPPING SPRINGS 10.7 N       
US1TXTV0207,22.4368983957219,30.3419,-98.1322,258.8,DRIPPING SPRINGS 10.9 NNW     
US1TXTY0005,15.4704445530044,32.4096,-100.0846,635.8,MERKEL 5.8 SW                 
US1TXTY0007,15.6565464895636,32.418,-99.7758,533.7,ABILENE 3.3 SW                
US1TXUP0008,29.2384769539078,32.5854,-95.0456,132.3,BIG SANDY 3.9 E               
US1TXUV0019,13.9816636851521,29.5976,-99.9989,423.7,CAMP WOOD 5.02 SSE            
US1TXVC0004,20.8975032851511,28.822,-96.961,29,VICTORIA 1.3 E                
US1TXVC0009,22.1772694781987,28.8046,-96.8266,21.9,INEZ 5.3 SSW                  
US1TXVC0017,24.4922448979592,28.8537,-96.9903,33.2,VICTORIA 2.1 NNW              
US1TXVC0020,21.8712059064807,28.779,-96.831,18.3,VICTORIA 9.7 ESE              
US1TXVC0021,22.7439120188531,28.6598,-97.1189,32.3,VICTORIA 14.0 SW              
US1TXVC0022,17.9775910364146,28.8421,-97.1823,49.4,VICTORIA 12.1 W               
US1TXVC0027,15.8109339407745,28.9279,-97.1008,40.2,NURSERY 0.4 NNW               
US1TXVC0033,14.8269794721408,29.0733,-96.9717,53.3,VICTORIA 17.2 N               
US1TXVV0001,14.2462311557789,29.384,-100.9096,324.9,DEL RIO 1.0 WNW               
US1TXVV0003,12.3288745387454,29.4421,-100.9536,347.5,DEL RIO 5.7 NW                
US1TXVV0009,12.9182019159912,30.0643,-101.4083,605.9,COMSTOCK 29.7 NW              
US1TXVV0014,12.7896592244418,29.8307,-101.7334,494.7,LANGTRY 10.6 W                
US1TXVV0015,15.4327830188679,29.7002,-101.3133,417,COMSTOCK 8.5 WNW (SEMINOLE CAN
US1TXVV0016,14.2229904926534,29.4817,-100.9413,361.5,DEL RIO 7.8 NNW               
US1TXVZ0002,29.4298780487805,32.4863,-95.8928,193.9,CANTON 4.6 SSW                
US1TXWA0001,22.3728163613123,30.0817,-96.6238,134.1,BURTON 6.9 SSW                
US1TXWA0003,27.0152057245081,30.2299,-96.1356,75,HEMPSTEAD 10.0 NNW            
US1TXWA0005,23.7295656235404,30.0895,-96.4865,114,BRENHAM 7.2 SW                
US1TXWA0006,23.7576714801444,30.1572,-96.2626,75,BRENHAM 8.0 E                 
US1TXWA0007,26.0375296912114,30.3118,-96.1864,89.9,WASHINGTON 2.0 WSW            
US1TXWA0008,18.1076470588235,30.2453,-96.5532,116.7,BURTON 5.3 NNE                
US1TXWA0009,22.881299734748,30.1564,-96.263,71.9,CHAPPELL HILL 1.0 NW          
US1TXWA0012,27.9086092715232,30.2821,-96.171,82.9,WASHINGTON 3.1 SSW            
US1TXWB0004,16.5160398230089,27.9025,-99.6392,184.1,LAS TIENDAS RANCH             
US1TXWB0012,19.2806191117093,27.5603,-99.4835,144.2,LAREDO 1.8 N                  
US1TXWB0022,15.4535266974291,27.6497,-99.1217,167.9,LAREDO 23.7 ENE               
US1TXWB0023,14.1214738054116,27.6765,-99.0423,159.1,FREER 29.5 WSW                
US1TXWD0002,29.3207547169811,32.947,-95.296,150.9,WINNSBORO 0.7 SSW             
US1TXWH0001,24.4402884182064,29.3161,-96.0934,29.9,WHARTON 0.3 E                 
US1TXWH0002,24.2602803738318,29.1267,-96.2602,26.8,EL CAMPO 4.9 SSE              
US1TXWH0004,24.427624872579,29.2061,-96.289,32.3,EL CAMPO 1.0 NW               
US1TXWH0009,22.9431356620634,29.3541,-96.0697,27.7,WHARTON 3.1 NE                
US1TXWH0010,20.2827004219409,29.1981,-96.2677,32.3,EL CAMPO 0.5 ENE              
US1TXWH0011,21.7413793103448,29.2278,-96.302,34.4,EL CAMPO 2.7 NW               
US1TXWK0003,27.198436560433,30.6256,-95.7148,102.4,HUNTSVILLE 11.5 WSW           
US1TXWK0004,29.0137672090113,30.8194,-95.3851,72.8,HUNTSVILLE 12.3 NE            
US1TXWK0005,26.8553846153846,30.702,-95.596,118.6,HUNTSVILLE 2.8 WSW            
US1TXWK0010,29.4766355140187,30.6876,-95.7374,96,HUNTSVILLE 11.3 W             
US1TXWK0012,31.3948220064725,30.7587,-95.576,112.2,HUNTSVILLE 3.6 NNW            
US1TXWK0013,30.029702970297,30.7751,-95.5835,89,HUNTSVILLE 4.8 NNW            
US1TXWL0001,32.6595174262735,29.8687,-95.9878,53.9,BROOKSHIRE 6.3 NNW            
US1TXWL0004,32.2425742574257,30.1382,-96.1051,71.6,HEMPSTEAD 3.4 NNW             
US1TXWL0009,39.3687707641196,29.8729,-96.003,46.9,BROOKSHIRE 6.9 NNW            
US1TXWM0001,22.2012072434608,30.6504,-97.7069,243.8,GEORGETOWN 1.2 W              
US1TXWM0012,21.2148900169205,30.5047,-97.5937,228.9,PFLUGERVILLE 4.7 NNE          
US1TXWM0016,18.970406360424,30.4779,-97.8474,303.9,CEDAR PARK 2.7 SSW            
US1TXWM0022,21.2043926490363,30.6713,-97.9283,317.3,LIBERTY HILL 0.6 NNW          
US1TXWM0026,34.3989898989899,30.7131,-97.6681,228.9,GEORGETOWN 4.7 NNE            
US1TXWM0035,19.3929539295393,30.7131,-97.9559,335,BERTRAM 6.4 ESE               
US1TXWM0039,22.2914798206278,30.5036,-97.6711,230.1,ROUND ROCK 1.0 S              
US1TXWM0044,23.162447257384,30.4556,-97.7692,271.9,JOLLYVILLE 1.2 WNW            
US1TXWM0046,23.1751552795031,30.4859,-97.7644,267,BRUSHY CREEK 2.4 SW           
US1TXWM0048,25.1969026548673,30.4458,-97.235,164.9,THRALL 10.5 SSE               
US1TXWM0058,24.5430884904569,30.7603,-97.857,321.6,ANDICE 1.6 SW                 
US1TXWM0061,24.8973913043478,30.4666,-97.8255,301.1,ANDERSON MILL 1.4 NW          
US1TXWM0068,21.4443225452551,30.5907,-97.6509,253,GEORGETOWN 4.5 SSE            
US1TXWM0070,23.2816622691293,30.501,-97.6952,225.2,ROUND ROCK 1.8 SW             
US1TXWM0071,21.1155449672424,30.5907,-97.6136,252.1,GEORGETOWN 5.8 SE             
US1TXWM0073,21.4025974025974,30.5561,-97.5343,207,HUTTO 0.8 NNE                 
US1TXWM0074,23.8588399720475,30.6341,-97.6387,229.8,GEORGETOWN 3.0 ESE            
US1TXWM0098,20.9679420889349,30.4719,-97.8326,292,CEDAR PARK 3.0 S              
US1TXWM0102,20.7893081761006,30.5095,-97.616,238,ROUND ROCK 3.4 E              
US1TXWM0106,21.4596685082873,30.5025,-97.595,231.6,ROUND ROCK 4.7 ESE            
US1TXWM0113,27.6780238500852,30.8324,-97.6773,266.1,JARRELL 4.4 W                 
US1TXWM0115,21.9343339587242,30.6216,-97.8063,271.9,GEORGETOWN 7.4 WSW            
US1TXWM0118,26.5380116959064,30.4929,-97.7708,274.6,BRUSHY CREEK 2.3 SW           
US1TXWM0119,23.5504,30.7923,-97.5162,220.7,BARTLETT 5.0 W                
US1TXWM0124,23.771897810219,30.663,-98.0008,359.7,LIBERTY HILL 4.7 W            
US1TXWM0129,20.8163265306122,30.4816,-97.2485,175.3,THRALL 7.9 SSE                
US1TXWM0135,25.4195250659631,30.653,-97.5366,202.7,GEORGETOWN 8.9 E              
US1TXWM0141,30.2258064516129,30.4922,-97.7387,271,ROUND ROCK 4.3 WSW            
US1TXWO0005,19.0168641750228,29.2495,-98.1958,177.1,FLORESVILLE 8.1 NNW           
US1TXWO0010,18.1149012567325,29.2829,-98.2456,182.9,ELMENDORF 5.6 ENE             
US1TXWO0014,21.9223029625489,29.3545,-98.2052,175.6,ST. HEDWIG 4.9 S              
US1TXWO0029,16.983660130719,29.1263,-98.1566,114.6,FLORESVILLE 0.7 S             
US1TXWO0034,14.7269303201507,29.0649,-98.077,125.9,POTH 0.6 SSE                  
US1TXWS0009,19.1551939924906,33.1895,-97.6171,264,DECATUR 3.6 SSW               
US1TXWS0010,18.2449494949495,33.263,-97.666,248.7,DECATUR 4.8 WNW               
US1TXWT0013,16.6292372881356,33.8539,-98.5437,297.8,WICHITA FALLS 3.4 SSW         
US1TXWT0015,16.9285714285714,33.8609,-98.6009,313.9,WICHITA FALLS 7.2 WSW         
US1TXZV0001,5.30852797392721,28.8858,-99.9969,206,CHAPARROSA RANCH              
US1TXZV0002,5.65420054200542,28.9318,-99.8785,227.1,HWY 57 FARM                   
US1TXZV0003,7.25935973955507,28.8853,-99.8555,217,PALOMO LODGE                  
US1TXZV0004,5.57669376693767,28.8577,-100.0855,203.9,PESCADO                       
US1TXZV0005,5.00054141851651,28.8873,-100.0565,221.9,SOUTH BIG WILLIAMS            
US1TXZV0006,5.32807399347117,28.9303,-100.063,228,VAT                           
US1TXZV0007,5.35070575461455,28.8073,-99.9242,198.1,YOUNDBLOOD                    
US1TXZV0008,6.08193163320673,28.8397,-99.9242,210.9,MCNALLY                       
US1TXZV0009,5.21661237785016,28.8537,-99.9385,213.1,SWITCHES                      
US1TXZV0010,5.18482384823848,28.8588,-99.9552,199,GALAN                         
US1TXZV0011,5.37981551817689,28.8538,-99.9557,199,BEEF HOLLOW FARM              
US1TXZV0012,5.34090909090909,28.8062,-99.9967,185.9,SOUTH FLOWING WELLS           
US1TXZV0013,5.54520844612886,28.9272,-99.9885,221,TRIANGLE                      
USC00410012,11.6653527788727,33.8339,-101.8436,1026.6,ABERNATHY                     
USC00410013,19.0588510042036,32.4317,-99.6325,549.2,ABILENE 6ESE                  
USC00410040,18.4177215189873,30.3519,-101.2519,612.6,ACTON RCH                     
USC00410071,10.9319784321858,35.3489,-102.6469,1229,ADRIAN 6N                     
USC00410120,17.3863740283493,32.7047,-99.3011,441.4,ALBANY                        
USC00410157,16.6294573643411,35.6103,-100.1022,792.5,ALLISON                       
USC00410174,11.6014285714286,30.3764,-103.66,1356.4,ALPINE                        
USC00410176,9.02591656131479,30.3703,-103.7808,1500.2,ALPINE 7NW                    
USC00410202,25.4121365360303,32.4644,-97.1831,215.2,ALVARADO 4NE                  
USC00410206,23.0537289494788,33.3867,-97.7164,307.8,ALVORD 3 N                    
USC00410225,13.8593934619929,29.4608,-101.0286,352.7,AMISTAD DAM                   
USC00410235,33.8165354330709,29.7878,-94.6342,7.3,ANAHUAC                       
USC00410246,23.3187328901056,30.7578,-97.8614,326.7,ANDICE 2 SW                   
USC00410250,7.34342258440047,32.3122,-102.5606,980.2,ANDREWS 2                     
USC00410257,31.2505947660587,29.1572,-95.4592,8.2,ANGLETON 2 W                  
USC00410268,16.6782655246253,32.7667,-99.89,523.3,ANSON                         
USC00410271,20.2538337368846,33.4414,-98.3689,312.4,ANTELOPE                      
USC00410297,26.1121345614738,31.8411,-97.2114,158.5,AQUILLA 1 SSE                 
USC00410305,23.7667473769169,28.3081,-96.8047,4.6,ARANSAS WR                    
USC00410337,26.1387283236994,32.7572,-97.0736,163.4,ARLINGTON SIX FLAGS           
USC00410345,18.8747290853923,26.8339,-97.7078,7.6,ARMSTRONG 4SE                 
USC00410394,14.7113118617439,33.1525,-100.2333,509,ASPERMONT                     
USC00410404,29.658749010293,32.1633,-95.83,136.6,ATHENS                        
USC00410408,33.322643723113,33.1244,-94.1661,96,ATLANTA                       
USC00410433,23.71200638213,30.4144,-97.7664,268.2,AUSTIN GREAT HILLS            
USC00410436,28.9793313069909,28.3889,-96.8389,7,AUSTWELL                      
USC00410443,34.2347826086957,33.6247,-94.8075,118.9,AVERY 5 NNW                   
USC00410482,10.3955408753097,30.8878,-102.3008,776.3,BAKERSFIELD                   
USC00410493,14.2274862960063,31.7414,-99.9764,534.9,BALLINGER 2 NW                
USC00410510,15.2089552238806,30.1197,-98.7867,592.8,BANKERSMITH 2SE               
USC00410518,26.979057591623,32.2631,-96.6369,140.5,BARDWELL DAM                  
USC00410569,29.2816620055933,28.9797,-95.975,15.8,BAY CITY WTR WKS              
USC00410586,36.760375880971,29.9142,-94.9908,7.9,BAYTOWN                       
USC00410611,38.8674227610481,30.0969,-94.0997,6.1,BEAUMONT CITY                 
USC00410613,34.9626425481715,30.0689,-94.2928,8.2,BEAUMONT RSCH CTR             
USC00410639,18.6922448979592,28.4575,-97.7061,77.7,BEEVILLE 5 NE                 
USC00410655,24.9560266980762,30.0317,-96.2167,85.3,BELLVILLE 6NNE                
USC00410660,19.8471275559883,29.5244,-97.685,117.3,BELMONT                       
USC00410690,15.1731532962669,27.5969,-98.4161,115.8,BENAVIDES 2                   
USC00410691,25.424204874019,32.6475,-97.4439,240.8,BENBROOK DAM                  
USC00410738,21.1995967741936,30.7625,-98.0214,344.1,BERTRAM 3 ENE                 
USC00410764,9.61248479935144,29.4372,-103.9583,1261.9,BIG BEND RCH SP               
USC00410779,12.5546448087432,31.2,-101.4625,833.3,BIG LAKE 2                    
USC00410781,13.4694727104533,32.3739,-101.4178,791.3,BIG SPRING 5NE                
USC00410784,10.2298534798535,32.2683,-101.4858,764.7,BIG SPRING FLD STN            
USC00410832,21.5692246835443,30.095,-98.4142,399.3,BLANCO                        
USC00410902,22.5671819262782,29.7986,-98.7353,440.4,BOERNE                        
USC00410923,30.0629508196721,33.6403,-96.1661,180.4,BONHAM 3NNE                   
USC00410926,24.6518367346939,33.8186,-97.7336,298.7,BONITA 7NW                    
USC00410944,11.4782430213465,36.4533,-100.5394,838.2,BOOKER                        
USC00410958,12.3360719874804,35.6689,-101.4022,930.6,BORGER                        
USC00410984,22.4611111111111,33.5511,-97.8472,329.2,BOWIE                         
USC00411000,10.37895971842,35.5303,-102.2564,972.6,BOYS RCH                      
USC00411007,14.967365967366,29.3167,-100.4144,341.4,BRACKETTVILLE                 
USC00411013,13.9979806138934,29.61,-100.4519,536.4,BRACKETTVILLE 22 N            
USC00411017,18.9200949367089,31.1444,-99.3492,521.5,BRADY                         
USC00411033,9.63718553459119,35.62,-103.0072,1268,BRAVO                         
USC00411042,20.4179222839017,32.75,-98.9017,356.6,BRECKENRIDGE                  
USC00411045,27.3222526398123,31.1589,-96.6825,143.3,BREMOND                       
USC00411048,27.2833659491194,30.1592,-96.3972,95.4,BRENHAM                       
USC00411063,21.8448979591837,33.2064,-97.7761,234.4,BRIDGEPORT                    
USC00411128,11.832616347282,33.1908,-102.2681,1005.8,BROWNFIELD #2                 
USC00411138,20.4603299293009,31.7383,-98.9456,424.9,BROWNWOOD 2ENE                
USC00411148,11.6923076923077,27.4392,-98.8358,235,BRUNI                         
USC00411215,21.8490230905861,29.7383,-98.4522,329.2,BULVERDE                      
USC00411239,19.3539144471348,31.9917,-99.2203,478.2,BURKETT                       
USC00411246,23.2576812781647,32.5067,-97.3444,232.3,BURLESON                      
USC00411250,20.9467312348668,30.7586,-98.2339,391.7,BURNET                        
USC00411267,9.96508434680267,35.1867,-102.0797,1164,BUSHLAND 1 WSW                
USC00411314,22.9954881050041,30.5328,-96.7022,111.3,CALDWELL                      
USC00411337,17.8445839874411,28.4658,-98.3539,66.4,CALLIHAM                      
USC00411395,19.9525672371638,29.8947,-99.1044,494.7,CAMP VERDE                    
USC00411407,13.8773547094188,36.0244,-100.4197,779.7,CANADIAN 6NW                  
USC00411408,17.7699451245251,35.6467,-100.0658,772.1,CANADIAN 22SE                 
USC00411429,25.7027766914353,29.8608,-98.1958,304.8,CANYON DAM                    
USC00411430,12.2021276595745,34.9806,-101.9264,1094.2,CANYON                        
USC00411433,23.0448947159317,29.9461,-98.3967,373.4,CANYON DAM #3                 
USC00411434,23.911714770798,29.9111,-98.3714,356,CANYON DAM #4                 
USC00411486,14.5861111111111,28.4894,-99.8733,186.8,CARRIZO SPRINGS 3S            
USC00411492,16.7620947630923,29.7908,-100.6742,564.2,CARTA VALLEY                  
USC00411500,32.3535393038717,32.1614,-94.3397,93,CARTHAGE                      
USC00411541,22.0224144710971,30.0164,-97.4786,132.9,CEDAR CREEK 5 S               
USC00411578,34.74,31.8075,-94.1642,99.1,CENTER                        
USC00411596,25.5908009516257,31.2581,-95.9744,97.5,CENTERVILLE                   
USC00411671,23.4162407722885,29.3092,-97.4061,111.3,CHEAPSIDE                     
USC00411694,16.012133072407,34.4386,-100.2183,585.2,CHILDRESS 2                   
USC00411715,11.7650141072148,29.2703,-103.3003,1615.4,CHISOS BASIN                  
USC00411720,16.9387274155538,28.4675,-98.2525,70.1,CHOKE CANYON DAM              
USC00411800,24.7145148356055,32.3139,-97.4061,238.7,CLEBURNE                      
USC00411810,33.5094339622642,30.3636,-95.0839,59.7,CLEVELAND                     
USC00411875,17.0805631599531,31.8278,-99.4319,523.6,COLEMAN                       
USC00411880,20.3244514106583,28.7156,-97.1742,36,COLETO CREEK RSVR             
USC00411911,25.8595074687122,29.6989,-96.5731,68.6,COLUMBUS                      
USC00411914,18.8499708114419,31.8983,-98.6033,421.8,COMANCHE                      
USC00411920,19.4356164383562,29.9614,-98.8944,436.8,COMFORT 2                     
USC00411921,30.1190858059342,33.1997,-95.9283,167.6,COMMERCE 4SW                  
USC00411934,16.5921810699589,31.5517,-99.7083,478.2,CONCHO PARK/IVIE RSVR         
USC00411956,30.8090019569472,30.3303,-95.4831,74.7,CONROE                        
USC00411968,28.4794102694459,33.3192,-95.6039,141.1,COOPER DAM                    
USC00411970,29.320348304308,33.3744,-95.6933,148.1,COOPER                        
USC00411974,12.5871227364185,31.5333,-101.2842,755.9,COPE RCH                      
USC00411990,22.9956947162427,31.1603,-97.9564,374.9,COPPERAS COVE 5 NW            
USC00412011,18.2057902973396,27.7792,-97.5056,13.4,CORPUS CHRISTI NWS            
USC00412013,18.2541567695962,27.6606,-97.3983,4.9,C C BOTANICAL GARDENS         
USC00412019,28.0686026936027,32.1225,-96.4867,136.9,CORSICANA                     
USC00412040,18.6819968553459,30.1806,-99.1539,647.1,COTTONWOOD 2NW                
USC00412082,5.37421383647799,31.4072,-102.3578,778.5,CRANE                         
USC00412084,6.34328358208955,31.6728,-102.4133,892.1,CRANE 10N                     
USC00412086,22.8168776371308,31.7731,-97.8264,298.7,CRANFILLS GAP                 
USC00412088,25.3892617449664,31.5333,-97.4525,214.9,CRAWFORD                      
USC00412096,24.4035228182546,32.5286,-97.6189,316.7,CRESSON                       
USC00412114,27.2742448330684,31.3072,-95.4508,105.8,CROCKETT                      
USC00412121,14.8506061791162,33.6517,-101.245,917.4,CROSBYTON                     
USC00412125,17.2105678233438,28.5978,-98.5547,86.9,CROSS                         
USC00412142,16.8658584278451,33.9897,-99.7303,451.1,CROWELL                       
USC00412173,21.4718367346939,29.0892,-97.3433,65.2,CUERO                         
USC00412180,27.9832635983264,33.155,-95.8433,189,CUMBY                         
USC00412206,31.6115166261152,30.0211,-95.7069,45.7,CYPRESS                       
USC00412225,31.6929996089167,32.9203,-94.7225,91.4,DAINGERFIELD 9 S              
USC00412238,11.1626351003603,36.0606,-102.5211,1214.3,DALHART                       
USC00412266,28.1135559921415,29.0567,-96.2319,21.3,DANEVANG 1 W                  
USC00412295,23.8257003112494,30.8014,-97.2689,169.5,DAVILLA 2N                    
USC00412334,25.943695479778,33.2331,-97.6225,295.7,DECATUR                       
USC00412352,30.3844236760125,33.4797,-94.6175,103.9,DEKALB                        
USC00412404,25.0562153602534,33.1992,-97.105,192,DENTON 2 SE                   
USC00412408,14.4974257425743,32.9619,-102.8219,1094.2,DENVER CITY                   
USC00412417,14.541935483871,28.7528,-99.1353,148.7,DERBY 1 S                     
USC00412444,29.3821005312628,31.8614,-95.2619,187.8,DIALVILLE 2 W                 
USC00412446,34.5691158156912,32.7056,-94.7889,86.6,DIANA 2 W                     
USC00412462,21.952269170579,30.3558,-96.8289,112.2,DIME BOX                      
USC00412464,11.1016816581932,34.5858,-102.312,1173.5,DIMMITT 2 N                   
USC00412585,22.1325772389519,30.2194,-97.9878,330.4,DRIPPING SPRINGS 6 E          
USC00412617,11.4110429447853,35.8731,-101.9725,1114,DUMAS                         
USC00412621,14.1300121506683,33.8094,-100.5169,612.6,DUMONT                        
USC00412676,22.9810964083176,29.6211,-96.3661,53.6,EAGLE LAKE RESCH CTR          
USC00412679,10.1614530776993,28.7569,-100.4792,247.5,EAGLE PASS 3N                 
USC00412741,18.3280871670702,31.2208,-99.8494,624.8,EDEN                          
USC00412770,27.7303206997085,29.0622,-96.7714,21.3,EDNA 7 NW                     
USC00412786,23.5629599345871,29.2,-96.2653,33.5,EL CAMPO                      
USC00412809,13.2259596359319,30.8694,-100.5994,743.7,ELDORADO                      
USC00412820,21.7712162690653,30.3642,-97.37,181.1,ELGIN 1 N                     
USC00412824,13.0086038326163,28.4747,-100.2147,246,EL INDIO 7ESE                 
USC00412906,16.8112449799197,27.9775,-99.3847,166.1,ENCINAL                       
USC00413060,15.8333985138835,26.5581,-99.1372,97.5,FALCON DAM                    
USC00413065,16.6800938599922,28.9614,-98.1103,104.5,FALLS CITY 7 WSW              
USC00413112,22.8528257456829,30.2758,-97.0192,130.8,FEDOR 3SE                     
USC00413133,27.2205292702486,32.5339,-96.6608,143.3,FERRIS                        
USC00413156,22.3570869224746,29.9744,-98.2669,359.7,FISCHERS STORE                
USC00413183,23.3771070168561,29.6339,-97.0644,143.3,FLATONIA 4SE                  
USC00413195,16.2902010050251,34.2319,-100.9561,720.9,FLOMOT 2E                     
USC00413196,14.9587378640777,34.2675,-100.9336,719.3,FLOMOT 4 NE                   
USC00413199,21.7687344913151,30.8394,-97.7928,300.5,FLORENCE                      
USC00413201,19.2773516350424,29.1333,-98.1628,121.9,FLORESVILLE                   
USC00413214,13.3185909980431,33.985,-101.3339,981.5,FLOYDADA                      
USC00413215,14.2727640631323,33.8761,-101.2464,954,FLOYDADA 9 SE                 
USC00413225,14.3892168437623,36.4328,-100.1369,844.3,FOLLETT                       
USC00413247,23.463887742468,33.4661,-97.5797,338.3,FORESTBURG 5 S                
USC00413257,14.9279527559055,30.8272,-100.1103,661.1,FT MCKAVETT                   
USC00413262,9.68270008084074,30.5997,-103.8869,1482.5,FT DAVIS                      
USC00413265,17.8577154308617,32.9264,-99.2342,388.6,FT GRIFFIN                    
USC00413280,8.07657657657658,30.9072,-102.9153,926,FT STOCKTON                   
USC00413285,24.4556120453657,32.8342,-97.2981,196.3,FT WORTH WSFO                 
USC00413289,24.6177432542927,32.8472,-97.4761,187.5,FT WORTH NATURE CTR           
USC00413290,24.4205298013245,32.7342,-97.3678,179.5,FT WORTH BOTANIC GARDEN       
USC00413291,10.3053263315829,30.56,-102.3653,905.6,FT STOCKTON 38SE              
USC00413329,19.6720156555773,30.2392,-98.9089,513.6,FREDERICKSBURG                
USC00413340,26.7235708692247,28.9844,-95.3808,2.4,FREEPORT 2 NW                 
USC00413341,15.5383966244726,27.8722,-98.6175,171.3,FREER                         
USC00413368,11.1875489428348,34.64,-102.7231,1222.2,FRIONA                        
USC00413370,26.3249902229175,33.1925,-96.7931,227.7,FRISCO                        
USC00413411,12.8628158844765,32.7744,-101.4539,771.1,GAIL                          
USC00413420,27.9579865239794,33.6461,-97.0592,265.2,GAINESVILLE 5 ENE             
USC00413485,20.9411314984709,31.4144,-97.7019,251.8,GATESVILLE                    
USC00413507,23.2952231793265,30.6764,-97.7208,266.4,GEORGETOWN LAKE               
USC00413508,15.5538727823453,28.3064,-98.1222,68.6,GEORGE W 2 SSW                
USC00413525,22.2371541501976,30.1872,-96.8594,167.6,GIDDINGS 5E                   
USC00413568,13.7951482479784,36.0089,-100.2692,796.4,GLAZIER                       
USC00413579,18.992,31.8897,-99.6294,628.8,GLEN COVE 2 NE                
USC00413605,19.7712162690653,30.3481,-98.6861,499.9,GOLD                          
USC00413614,20.6791401273885,31.4406,-98.5903,459.3,GOLDTHWAITE 1 WSW             
USC00413622,22.0649706457926,29.4744,-97.4481,90.2,GONZALES 2S                   
USC00413624,20.2698412698413,29.4358,-97.5178,111.3,GONZALES 10 SW                
USC00413668,19.479435483871,33.1203,-98.5669,328.6,GRAHAM                        
USC00413675,25.0535553555356,32.5217,-97.8069,237.4,GRANBURY 5N                   
USC00413686,20.8735812133072,30.7189,-97.3211,169.2,GRANGER DAM                   
USC00413691,26.1951612903226,32.9506,-97.0553,178.3,GRAPEVINE DAM                 
USC00413787,13.3265545561205,36.2631,-101.405,966.2,GRUVER                        
USC00413828,14.5723892405063,33.6267,-100.3369,536.4,GUTHRIE                       
USC00413873,22.8282907662083,29.4706,-96.9397,83.8,HALLETTSVILLE 2 N             
USC00413877,31.0822187254131,32.4478,-94.5956,98.1,HALLSVILLE 4 S                
USC00413884,22.1936339522546,31.7089,-98.115,348.4,HAMILTON                      
USC00413890,16.333855799373,32.8694,-100.1211,524.3,HAMLIN 1SW                    
USC00413926,11.3831064851882,34.7861,-101.8953,1126.8,HAPPY 4NW                     
USC00413943,19.4585502603124,26.2028,-97.6728,11.6,HARLINGEN                     
USC00413954,17.60406885759,30.3086,-99.203,643.1,HARPER 3ENE                   
USC00413972,10.5003912363067,34.3697,-102.1175,1116.5,HART                          
USC00413979,10.8583895279651,35.8783,-102.385,1184.8,HARTLEY                       
USC00413981,10.2639053254438,35.8656,-102.3319,1190.2,HARTLEY 4 ESE                 
USC00413992,15.5389898989899,33.1644,-99.7389,484.6,HASKELL                       
USC00413998,24.0244755244755,32.9867,-97.3722,229.5,HASLET                        
USC00414020,33.6574835526316,32.5781,-95.2033,102.1,HAWKINS                       
USC00414081,31.6485521618405,32.1808,-94.7964,128,HENDERSON                     
USC00414098,12.0891669925694,34.8172,-102.4003,1164.3,HEREFORD                      
USC00414140,16.8120035304501,36.1161,-100.0239,781.5,HIGGINS                       
USC00414182,26.0241488519398,32.0161,-97.1094,167.6,HILLSBORO                     
USC00414202,34.7710843373494,32.7275,-95.1925,150.9,HOLLY LAKE RCH                
USC00414254,18.8731225296443,29.3364,-99.1386,267.9,HONDO                         
USC00414325,33.3844348846304,29.66,-95.6275,15.2,HOUSTON-WESTBURY              
USC00414327,32.8816990869393,29.8733,-95.5275,34.1,HOUSTON NORTH HOUSTON         
USC00414333,35.4407508799374,29.4717,-95.0833,5.8,HOUSTON NWSO                  
USC00414363,14.2532647407994,30.3614,-100.305,668.4,HUMBLE PUMP STN 5 WNW         
USC00414375,14.7027133307118,30.0631,-99.505,612.6,HUNT 10 W                     
USC00414382,29.4804381846635,30.7064,-95.5422,150.6,HUNTSVILLE                    
USC00414402,20.7333061889251,30.2533,-98.5711,443.8,HYE                           
USC00414505,27.2050980392157,32.0914,-97.1211,198.7,ITASCA 5SSW                   
USC00414517,21.6374326310632,33.2064,-98.1689,329.5,JACKSBORO                     
USC00414525,29.1918054930212,31.9622,-95.2736,170.7,JACKSONVILLE                  
USC00414556,23.7908653846154,30.8294,-97.6011,267,JARRELL                       
USC00414570,14.6533176285826,33.2542,-100.5731,612.6,JAYTON                        
USC00414575,22.1135473766641,29.7664,-97.3164,126.5,JEDDO 3S                      
USC00414577,30.1270718232044,32.7692,-94.3592,64.3,JEFFERSON                     
USC00414597,26.0848085631947,32.6406,-96.9747,180.1,JOE POOL LAKE                 
USC00414670,15.3579409417398,30.4453,-99.8045,532.5,JUNCTION 4SSW                 
USC00414679,25.9893069306931,33.0806,-97.2967,195.1,JUSTIN                        
USC00414704,30.162553858206,29.8025,-95.8197,46.6,KATY CITY                     
USC00414757,21.0958154086821,29.9639,-98.5292,417,KENDALIA                      
USC00414770,8.49957877000843,31.0158,-104.1108,1402.7,KENT 8SE                      
USC00414775,6.54016955995155,31.8408,-103.0889,862.6,KERMIT                        
USC00414782,18.9512003148367,30.0739,-99.1094,547.7,KERRVILLE 3 NNE               
USC00414805,19.3932363350374,29.6833,-97.7672,155.4,KINGSBURY                     
USC00414810,19.7225705329154,27.5311,-97.8497,17.4,KINGSVILLE                    
USC00414878,37.7193675889328,30.375,-94.2994,18.6,KOUNTZE                       
USC00414903,24.1134638433879,29.9175,-96.8769,108.8,LA GRANGE                     
USC00414911,12.034122842232,26.3233,-98.3233,64.9,LA JOYA                       
USC00414920,14.0916,28.9839,-99.8683,238.4,LA PRYOR                      
USC00414950,6.59638790734197,29.2694,-103.7575,732.4,LAJITAS                       
USC00414960,15.0837696335079,32.2261,-99.8172,611.4,TUSCOLA 2NW                   
USC00414967,13.1314330958036,33.0642,-101.0489,694.9,LAKE ALAN HENRY               
USC00414968,4.44186046511628,29.4589,-103.4994,1100,LAKE AMENT                    
USC00414972,22.8478260869565,33.225,-97.8317,265.2,LAKE BRIDGEPORT DAM           
USC00414976,32.4236432477913,32.8242,-95.5275,126.2,LAKE FK RSVR                  
USC00414980,29.1678486997636,32.8522,-95.8864,136.6,LAKE TAWAKONI                 
USC00414982,16.0447820871651,33.7542,-99.1442,355.7,LAKE KEMP                     
USC00415013,12.0328973444312,32.7228,-101.9456,903.7,LAMESA 1 SSE                  
USC00415048,8.78,29.8097,-101.5603,393.2,LANGTRY                       
USC00415060,13.5127102072742,27.5683,-99.4983,131.1,LAREDO 2                      
USC00415094,26.8206168831169,33.0353,-96.4861,155.4,LAVON DAM                     
USC00415113,16.9087907552621,29.7392,-99.7611,494.4,LEAKEY                        
USC00415120,11.7872427983539,32.0819,-101.4842,685.8,LEES                          
USC00415158,10.040903280784,32.3081,-101.8775,867.2,LENORAH                       
USC00415183,10.983183418068,33.55,-102.3758,1071.1,LEVELLAND                     
USC00415192,23.5989392084863,33.0694,-97.0094,169.5,LEWISVILLE DAM                
USC00415193,21.3845550764406,30.4064,-97.0133,128.9,LEXINGTON                     
USC00415196,35.7248322147651,30.0592,-94.795,10.7,LIBERTY                       
USC00415221,34.1525198938992,32.54,-95.3761,168.9,LINDALE 3 NE                  
USC00415229,33.7890594254231,33.0161,-94.3675,126.5,LINDEN                        
USC00415243,22.0513582342954,32.5725,-98.0803,301.4,LIPAN 4NW                     
USC00415247,13.4345776031434,36.2361,-100.2708,728.5,LIPSCOMB                      
USC00415265,11.8106624852999,33.8692,-102.2592,1056.4,LITTLEFIELD                   
USC00415272,18.7376470588235,30.7425,-98.6542,310.9,LLANO                         
USC00415285,20.1088836477987,29.8569,-97.6958,149.4,LOCKHART 2SW                  
USC00415303,15.5046948356808,28.1569,-98.5142,132.6,LOMA ALTA                     
USC00415312,16.0703173615433,30.7131,-99.5681,548.6,LONDON 3N                     
USC00415341,29.5881601362862,32.4725,-94.7172,100.6,LONGVIEW                      
USC00415344,32.1282454760032,32.5183,-94.7189,153.6,LONGVIEW #2                   
USC00415369,14.4280604133545,28.4478,-99.0656,87.8,LOS ANGELES 4 WSW             
USC00415409,10.48,33.5281,-101.8761,986,LUBBOCK WFO                   
USC00415410,10.7622149837134,33.6897,-101.8219,989.1,LUBBOCK 9 N                   
USC00415415,30.3143642072214,31.4269,-94.8942,106.7,LUFKIN 11 NW                  
USC00415429,20.593896713615,29.6756,-97.6578,121.9,LULING                        
USC00415430,20.5770735524257,29.8403,-97.5672,135.6,LULING 12 NE                  
USC00415435,36.2707355242567,30.2503,-94.1786,11.9,LUMBERTON                     
USC00415477,28.8313807531381,30.9392,-95.9203,76.8,MADISONVILLE                  
USC00415579,10.3490087597971,30.1925,-103.2717,1215.8,MARATHON                      
USC00415611,28.1206322795341,31.305,-96.8767,124.1,MARLIN                        
USC00415618,31.6897496087637,32.4892,-94.3289,92,MARSHALL                      
USC00415650,19.4268826619965,30.7478,-99.2306,466.6,MASON                         
USC00415658,13.6617586912065,34.025,-100.8117,719.3,MATADOR                       
USC00415659,28.549940310386,28.6836,-95.9733,3,MATAGORDA NO 2                
USC00415661,17.6318057187622,28.0372,-97.8725,42.1,MATHIS 4 SSW                  
USC00415667,36.2369791666667,33.3322,-94.3436,93,MAUD                          
USC00415695,20.3836094158675,32.3117,-97.0161,167.3,MAYPEARL                      
USC00415707,9.22085889570552,31.1331,-102.2217,750.1,MCCAMEY                       
USC00415742,22.3950665622553,29.81,-99.2497,521.8,MEDINA 1NE                    
USC00415821,13.4736018771998,34.7261,-100.5372,637,MEMPHIS                       
USC00415861,10.882072662299,31.4364,-100.8781,672.1,MERTZON 12NNW                 
USC00415891,8.53724315068493,32.0186,-102.0258,846.1,MIDLAND 4 ENE                 
USC00415897,24.7874899759423,32.4842,-96.9942,228.6,MIDLOTHIAN                    
USC00415904,27.0133928571429,31.0706,-95.715,71.6,MIDWAY 4 NE                   
USC00415954,31.4933062880325,32.635,-95.4822,111.9,MINEOLA                       
USC00415989,13.7506297229219,35.625,-100.4464,868.7,MOBEETIE 7 N                  
USC00416058,25.4087740877409,32.0139,-97.6131,221.9,MORGAN                        
USC00416074,11.8169730152522,33.7186,-102.7586,1147.9,MORTON                        
USC00416104,12.2610441767068,30.7053,-104.0233,2069.6,MT LOCKE                      
USC00416108,31.9956624605678,33.1689,-95.0056,129.5,MT PLEASANT                   
USC00416119,33.5694716242661,33.1964,-95.2236,136.2,MT VERNON                     
USC00416130,26.0609707180104,33.6564,-97.3769,315.8,MUENSTER                      
USC00416135,10.2222660876431,34.2192,-102.7328,1167.4,MULESHOE #1                   
USC00416137,10.6592156862745,33.9544,-102.7783,1140,MULESHOE NTL WR               
USC00416147,10.9826642335766,33.45,-99.6364,452.9,MUNDAY 1W                     
USC00416177,28.3580101840971,31.6164,-94.6431,132.6,NACOGDOCHES                   
USC00416210,27.0583971002819,31.9611,-96.6881,138.4,NAVARRO MILLS DAM             
USC00416270,33.1349960411718,33.4547,-94.4089,105.2,NEW BOSTON                    
USC00416273,19.3366174055829,29.7047,-98.0289,191.4,NEW BRAUNFELS WFO             
USC00416276,21.2731191222571,29.6597,-98.1636,219.5,NEW BRAUNFELS                 
USC00416280,29.3300852618758,30.1375,-95.1783,71.6,NEW CANEY 2 E                 
USC00416335,25.6393169512703,31.9747,-95.1381,113.4,NEW SUMMERFIELD 2W            
USC00416367,21.1944444444444,31.1081,-98.3794,414.5,NIX STORE 1 W                 
USC00416368,22.6134376438104,29.2828,-97.7675,103.6,NIXON                         
USC00416433,15.4399337199669,34.2606,-100.6014,630.9,NORTHFIELD                    
USC00416448,22.0735524256651,29.8647,-98.6583,434.3,NORTHINGTON RCH               
USC00416477,13.6745585874799,36.1014,-100.5894,883.9,NOTLA 3 SE                    
USC00416502,8.17293558149589,31.8797,-102.3592,887,ODESSA                        
USC00416506,9.59402985074627,31.8367,-102.3586,879.7,ODESSA 1SE                    
USC00416510,7.7043991416309,31.825,-102.4442,899.2,ODESSA 5WSW                   
USC00416644,11.1193228736581,34.1797,-102.1356,1109.5,OLTON                         
USC00416664,38.6438087774295,30.0858,-93.7417,3,ORANGE                        
USC00416680,37.9292210359826,30.2264,-93.7394,5.5,ORANGE 9 N                    
USC00416733,14.3715775749674,30.4267,-101.0367,646.2,OZONA 22SE                    
USC00416739,15.3948103792415,27.4467,-97.2967,3,PADRE IS NS                   
USC00416740,14.1205357142857,34.0067,-100.2989,579.1,PADUCAH                       
USC00416742,13.7546943667599,33.8083,-100.2981,558.4,PADUCAH 15 S                  
USC00416745,13.792865828942,33.8758,-100.3831,594.4,PADUCAH 10S                   
USC00416747,17.2008281573499,31.5064,-99.9305,504.1,PAINT ROCK                    
USC00416776,14.8998435054773,35.5544,-100.9736,960.1,PAMPA #2                      
USC00416777,12.5859504132231,35.5664,-100.9289,973.8,PAMPA 3E                      
USC00416792,7.71628651460584,29.3272,-103.2061,1140,PANTHER JUNCTION              
USC00416794,29.7445510026155,33.6744,-95.5586,165.2,PARIS                         
USC00416879,14.1012209531312,28.8889,-99.0897,193.5,PEARSALL                      
USC00416893,5.38233843117908,31.3783,-103.6331,830.3,PECOS 8W                      
USC00416950,13.5265662172879,36.3897,-100.8239,896.7,PERRYTON                      
USC00416952,13.1388449367089,36.1017,-100.7394,909.8,PERRYTON 21 S                 
USC00416953,12.4393878372936,36.4408,-100.9961,917.4,PERRYTON 11 WNW               
USC00416959,7.92842535787321,29.6603,-103.1736,873.3,PERSIMMON GAP                 
USC00417020,25.5207418252806,29.2353,-96.1817,32,PIERCE 1 E                    
USC00417040,31.9297061159651,31.2447,-93.9658,67.1,PINELAND                      
USC00417060,14.350749291211,33.5992,-100.5319,592.8,PITCHFORK RCH                 
USC00417074,8.11241119933138,33.1869,-102.8281,1120.1,PLAINS                        
USC00417079,12.1188893234259,34.1892,-101.7022,1027.2,PLAINVIEW                     
USC00417081,11.6558466953461,34.1981,-101.7461,1051.6,PLAINVIEW WTR PRODUCTN        
USC00417111,19.7123233908948,28.9606,-98.4772,109.1,PLEASANTON                    
USC00417140,25.3735105407883,28.6575,-96.5553,6.1,PT COMFORT                    
USC00417170,20.8834720570749,27.8381,-97.0592,3.7,PORT ARANSAS                  
USC00417172,34.8009422850412,29.9044,-93.9708,1.5,PORT ARTHUR CITY              
USC00417176,16.7482352941177,27.6997,-97.1581,1.8,PORT ARANSAS 11 SSW           
USC00417183,25.8772277227723,28.6078,-96.6417,5.5,PORT LAVACA                   
USC00417184,16.8481821813823,26.5578,-97.4264,2.7,PORT MANSFIELD                
USC00417206,15.2414605418139,33.1986,-101.3744,795.8,POST                          
USC00417215,18.6750888274773,29.0281,-98.5686,129.5,POTEET                        
USC00417232,16.4436479490243,29.9167,-99.7908,625.4,PRADE RCH                     
USC00417243,18.1807365439093,30.5767,-98.8767,441.4,PRAIRIE MTN                   
USC00417264,5.88864142538976,29.56,-104.3728,783.3,PRESIDIO 2                    
USC00417300,20.8302733578131,31.9633,-98.4942,372.2,PROCTOR RSVR                  
USC00417327,19.2624168947986,32.3664,-99.1925,494.1,PUTNAM                        
USC00417365,28.373556352051,32.7931,-95.435,125.9,QUITMAN 2                     
USC00417388,24.0407759303246,32.2619,-97.7064,197.5,RAINBOW                       
USC00417480,20.3812133072407,31.2178,-98.5833,382.5,RED BLUFF CROSSING            
USC00417530,21.7954276704769,28.2939,-97.3297,16.5,REFUGIO 3 SW                  
USC00417588,27.7686212361331,32.9964,-96.7428,206.7,RICHARDSON                    
USC00417594,30.9151692436273,29.5839,-95.7553,30.8,RICHMOND                      
USC00417624,6.53058676654182,29.1853,-102.9622,566.3,RIO GRANDE VILLAGE            
USC00417628,20.4470082127493,29.4417,-98.88,259.1,RIOMEDINA                     
USC00417659,26.4506197520992,33.005,-97.2331,195.4,ROANOKE                       
USC00417663,15.1645193260654,33.8983,-100.8603,728.5,ROARING SPRINGS               
USC00417677,16.8532630725578,27.7894,-97.6619,25.9,ROBSTOWN                      
USC00417717,13.7737769080235,29.6878,-100.4217,525.8,ROCKSPRINGS 26SSW             
USC00417743,14.3876781223806,32.4481,-100.5264,725.4,ROSCOE                        
USC00417773,28.1459502806736,32.4611,-96.4494,110.9,ROSSER                        
USC00417782,15.364978061428,32.8556,-100.4611,608.1,ROTAN                         
USC00417791,21.5776300351975,30.5414,-97.635,219.8,ROUND ROCK 3 NE               
USC00417836,17.8454763811049,28.8297,-97.7133,89.9,RUNGE                         
USC00417841,29.7117117117117,31.8092,-95.1428,211.8,RUSK                          
USC00417873,15.462651544779,29.3278,-99.4653,290.2,SABINAL                       
USC00417944,14.5047505938242,31.3708,-100.4944,576.1,SAN ANGELO WFO                
USC00417947,22.1341940532081,29.4703,-98.4728,213.4,SAN ANTONIO INCARNATE WORD    
USC00417951,34.0534591194969,31.5192,-94.1186,89.9,SAN AUGUSTINE                 
USC00417983,21.5609147609148,29.8833,-97.9494,202.7,SAN MARCOS                    
USC00417994,19.6058158319871,31.2842,-98.7589,405.4,SAN SABA 7NW                  
USC00418040,12.1373015873016,35.7047,-101.5492,894.9,SANFORD DAM                   
USC00418046,16.1955835962145,31.5906,-99.2258,432.2,SANTA ANNA 12SSE              
USC00418081,17.4691848906561,27.2169,-97.6956,11.6,SARITA 7 E                    
USC00418126,24.1687374749499,29.6825,-96.8564,88.4,SCHULENBURG                   
USC00418139,18.7780832678712,33.6633,-98.4703,293.8,SCOTLAND                      
USC00418187,20.3484552209621,29.5519,-97.9703,153.9,SEGUIN 1 SSW                  
USC00418201,9.97380106571936,32.7131,-102.6597,1016.8,SEMINOLE                      
USC00418221,11.7557726465364,33.6419,-99.2894,399.6,SEYMOUR 3NW                   
USC00418232,11.527711797308,33.6878,-101.9853,1011.3,SHALLOWATER                   
USC00418236,16.2482352941177,35.215,-100.2503,719.3,SHAMROCK #2                   
USC00418274,29.9572107765452,33.7033,-96.6419,231.6,SHERMAN                       
USC00418311,33.2518871672626,30.3703,-94.2019,54.9,SILSBEE 4 N                   
USC00418323,13.1792044111855,34.4722,-101.3006,999.7,SILVERTON                     
USC00418326,17.6,31.955,-99.5439,612.6,SILVER VALLEY                 
USC00418354,19.8826425933525,28.0422,-97.5428,14.6,SINTON                        
USC00418373,14.7866004962779,33.4367,-101.6472,939.4,SLATON                        
USC00418415,21.5487077534791,30.0092,-97.1644,96.6,SMITHVILLE                    
USC00418433,14.4455611390285,32.71,-100.9111,706.8,SNYDER                        
USC00418446,22.0965125709651,30.3367,-96.5403,80.2,SOMERVILLE DAM                
USC00418449,14.0781318201659,30.5831,-100.6503,651.7,SONORA                        
USC00418477,14.2515262515263,33.3614,-101.5517,1011.9,SOUTHLAND                     
USC00418487,17.2697876447876,26.0814,-97.1033,1.5,S PADRE IS                    
USC00418519,26.7981220657277,29.2728,-96.6858,43.6,SPEAKS 2                      
USC00418531,19.7378144654088,30.4814,-98.1606,259.1,SPICEWOOD                     
USC00418544,21.6537558685446,29.8653,-98.3797,306.3,SPRING BRANCH 2SE             
USC00418566,14.3079937304075,33.4792,-100.8761,700.1,SPUR                          
USC00418583,16.1974704202366,32.9403,-99.8036,491.3,STAMFORD 1                    
USC00418630,14.0387811634349,31.8347,-100.9828,694.9,STERLING CITY                 
USC00418646,24.7883917775091,31.0372,-97.5283,215.2,STILLHOUSE HOLLOW DAM         
USC00418658,22.9641562625856,29.3258,-97.9753,161.5,STOCKDALE 6N                  
USC00418692,10.1192804067266,36.4414,-102.0775,1098.2,STRATFORD                     
USC00418696,20.8390850722311,32.6592,-98.4678,359.7,STRAWN 8 NNE                  
USC00418743,28.2730184147318,33.1481,-95.6269,150.9,SULPHUR SPRINGS               
USC00418818,13.420023464998,33.1714,-101.7981,951,TAHOKA                        
USC00418845,20.4408050513023,29.6075,-99.28,397.8,TARPLEY 3S                    
USC00418862,21.3269456394212,30.5844,-97.4156,174,TAYLOR 1NW                    
USC00418863,19.6588327457893,30.9731,-98.9433,556.3,TAYLOR RCH                    
USC00418877,19.9855299178725,30.4333,-98.8097,524.3,TEAGUE RCH                    
USC00418924,6.15888650963597,29.3486,-103.595,802.5,TERLINGUA                     
USC00418929,27.9220452640402,32.7336,-96.3225,150.9,TERRELL                       
USC00418942,34.9032889584965,33.4367,-94.0772,118.9,TEXARKANA                     
USC00418964,8.94018103109012,36.3786,-103.0244,1433.8,TEXLINE                       
USC00418996,29.0639324487334,29.4822,-95.6314,21.3,THOMPSONS 3 WSW               
USC00419001,23.5133124510572,30.6147,-97.2086,144.8,THORNDALE                     
USC00419004,27.605530703538,31.3917,-96.5656,144.8,THORNTON 1SSE                 
USC00419007,18.5455259026688,28.5817,-98.1444,76.2,THREE RIVERS 8 NE             
USC00419016,17.7005649717514,33.3144,-99.2006,425.5,THROCKMORTON 10N              
USC00419099,19.541567695962,30.8836,-98.4708,312.7,TOW                           
USC00419101,35.1045725646123,30.7931,-94.1819,65.2,TOWN BLUFF DAM                
USC00419125,28.0013729977117,33.4311,-96.3397,229.8,TRENTON                       
USC00419163,14.2197708952058,33.7569,-99.8619,478.8,TRUSCOTT 3 W                  
USC00419175,11.4924766165108,34.5475,-101.7614,1060.7,TULIA                         
USC00419191,15.7393533123028,34.3956,-100.8972,710.2,TURKEY                        
USC00419207,32.4133750488854,32.3067,-95.2969,167.6,TYLER                         
USC00419261,16.8956866197183,29.6158,-99.5597,467.3,UTOPIA 2W                     
USC00419270,8.91186299081036,30.5864,-104.4997,1353.3,VALENTINE                     
USC00419274,7.04162219850587,30.6686,-104.8211,1192.7,VALENTINE 20 WNW              
USC00419295,5.84429641965029,31.0417,-104.8372,1239,VAN HORN                      
USC00419312,16.8447030497592,29.8453,-99.5519,696.2,VANDERPOOL 10 N               
USC00419313,19.6669278996865,29.8075,-99.5764,556.3,VANDERPOOL 4N                 
USC00419330,10.8128,35.2775,-102.4633,1218.6,VEGA 2NW                      
USC00419346,14.4124358243012,34.1517,-99.3256,368.8,VERNON                        
USC00419361,23.33708769107,28.8608,-97.0181,30.8,VICTORIA FIRE DEPT #5         
USC00419367,24.4651911468813,28.8439,-96.9214,31.7,VICTORIA RGNL AP              
USC00419380,12.516179952644,34.6522,-101.4969,1036.3,VIGO PARK                     
USC00419417,24.9089417555373,31.6003,-97.2169,150.9,WACO DAM                      
USC00419491,25.3661805281829,30.3236,-96.1594,65.5,WASHINGTON SP                 
USC00419499,14.2738486842105,31.6725,-100.7283,644.7,WATER VALLEY                  
USC00419501,14.9721131186174,31.8136,-100.6286,748.3,WATER VALLEY 11 NNE           
USC00419504,21.3300743058271,30.9297,-98.0219,310.3,WATSON                        
USC00419532,22.8034987794955,32.7483,-97.77,291.1,WEATHERFORD                   
USC00419559,23.421368547419,28.1136,-97.4178,15.2,WELDER WILDLIFE FOUNDATION    
USC00419565,14.0238560813453,34.8422,-100.2103,621.8,WELLINGTON                    
USC00419593,25.2057902973396,31.8111,-97.0797,196.6,W                             
USC00419605,27.4849315068493,29.1378,-95.6253,9.4,WEST COLUMBIA 1 ESE           
USC00419655,28.342039800995,29.3178,-96.0847,33.8,WHARTON                       
USC00419711,14.6005488043904,33.4561,-101.0925,735.2,WHITE RIVER RESERVOIR         
USC00419715,27.4829497016198,31.8611,-97.375,175,WHITNEY DAM                   
USC00419717,18.9204233633869,28.6611,-98.2553,78.6,WHITSETT                      
USC00419754,33.3848259679312,30.5347,-94.4456,61,WILDWOOD                      
USC00419800,31.0046929996089,32.7019,-96.015,158.5,WILLS PT                      
USC00419815,23.7027766914353,30.0017,-98.1047,275.8,WIMBERLEY 1 NW                
USC00419893,18.1590909090909,33.0178,-99.0539,378.9,WOODSON                       
USC00419952,24.9608916699257,29.2739,-97.1556,89.9,YOAKUM                        
USC00419962,20.8686579378069,30.9597,-97.7183,224,YOUNGSPORT                    
USW00003024,10.8606750392465,35.695,-101.395,930.9,BORGER HUTCHINSON CO AP       
USW00003031,8.45867606737172,31.9206,-102.3867,914.7,ODESSA SCHLEMEYER FLD         
USW00003032,7.07625444488345,30.0481,-102.2131,707.7,DRYDEN TERRELL CO AP          
USW00003047,8.45098039215686,31.6219,-102.8072,830.3,MONAHANS 6 ENE                
USW00003054,9.78829536527887,33.9558,-102.7739,1140.6,MULESHOE 19 S                 
USW00003072,14.4925490196078,32.0408,-100.2494,608.7,BRONTE 11 NNE                 
USW00003901,28.2354321470473,32.3847,-94.7117,111.3,LONGVIEW E TX RGNL AP         
USW00003902,19.7147665124106,31.0667,-97.8333,309.4,ROBERT GRAY AAF               
USW00003904,23.8001564333203,30.5892,-96.3647,93,COLLEGE STN                   
USW00003927,23.4857254595229,32.8978,-97.0189,170.7,DALLAS FT WORTH AP            
USW00003933,20.9908933217693,31.1333,-97.7167,281.6,FT HOOD                       
USW00003951,31.462441314554,32.35,-94.65,124.1,LONGVIEW WSMO                 
USW00003969,21.345695970696,32.2314,-98.2319,393.2,STEPHENVILLE                  
USW00003971,24.3264106583072,32.6808,-96.8681,200.6,DALLAS REDBIRD AP             
USW00003991,23.177760375881,33.2061,-97.1989,195.7,DENTON MUNI AP                
USW00003999,17.9876099120703,30.7406,-98.2353,392.6,BURNET MUNI AP                
USW00012904,16.6654901960784,26.2281,-97.6542,10.4,HARLINGEN RIO GRANDE AP       
USW00012907,10.5121951219512,27.5333,-99.4667,153.9,LAREDO AFB                    
USW00012912,23.6171294485725,28.8614,-96.9303,35.1,VICTORIA RGNL AP              
USW00012917,36.56315995307,29.9506,-94.0206,4.9,PORT ARTHUR SE TX AP          
USW00012918,34.2190066484161,29.6381,-95.2819,13.4,HOUSTON HOBBY AP              
USW00012919,19.9389910050841,25.9156,-97.4186,7,BROWNSVILLE                   
USW00012921,21.675791943684,29.5442,-98.4839,240.5,SAN ANTONIO INTL AP           
USW00012923,26.1974970668752,29.2733,-94.8592,1.5,GALVESTON SCHOLES FLD         
USW00012924,18.7246773562769,27.7839,-97.5108,13.7,CORPUS CHRISTI                
USW00012926,14.8505086245024,27.6833,-97.2833,5.5,CORPUS CHRISTI NAS            
USW00012928,15.1210526315789,27.5,-97.8167,17.1,KINGSVILLE NAAS               
USW00012932,16.7124362495096,27.7411,-98.0247,52.7,ALICE INTL AP                 
USW00012935,25.4012514665624,28.7247,-96.2536,3.7,PALACIOS MUNI AP              
USW00012947,14.1412915851272,28.4567,-99.2183,145.1,COTULLA LA SALLE CO AP        
USW00012957,14.8295946477765,26.1658,-97.3458,5.8,PORT ISABEL CAMERON AP        
USW00012959,13.9065310911224,26.1839,-98.2539,30.5,MCALLEN MILLER INTL AP        
USW00012960,31.2029722330857,29.98,-95.36,29,HOUSTON INTERCONT AP          
USW00012962,15.6697965571205,29.36,-99.1742,280.4,HONDO MUNI AP                 
USW00012970,16.8819144762652,29.3389,-98.4719,174,SAN ANTONIO STINSON AP        
USW00012971,19.9769260852562,29.7036,-98.0281,192.9,AUSTIN SAN ANTONIO            
USW00012972,16.0882352941177,28.0836,-97.0464,6.7,ROCKPORT ARANSAS CO AP        
USW00012975,31.8973954222573,29.5189,-95.2417,13.4,HOUSTON CLOVER FLD            
USW00012976,25.4264994119953,29.1097,-95.4619,7.6,ANGLETON BRAZORIA AP          
USW00012977,28.205905511811,29.6222,-95.6564,25,HOUSTON SUGARLAND MEM         
USW00012987,14.234025872207,26.5258,-98.0633,19.5,EDINBURG 17 NNE               
USW00013904,21.2193977317169,30.1831,-97.68,146.3,AUSTIN BERGSTROM AP           
USW00013911,19.0150842945874,32.7667,-97.45,185.3,FT WORTH NAS                  
USW00013958,22.4450527962456,30.3208,-97.7603,204.2,AUSTIN-CAMP MABRY             
USW00013959,25.5482987876418,31.6189,-97.2283,152.4,WACO RGNL AP                  
USW00013960,24.9734063355495,32.8519,-96.8556,134.1,DALLAS LOVE FLD               
USW00013961,23.2565506452875,32.8192,-97.3614,209.4,FT WORTH MEACHAM FLD          
USW00013962,17.1791161517403,32.4106,-99.6822,545.6,ABILENE RGNL AP               
USW00013966,17.3058271411811,33.9786,-98.4928,310,WICHITA FALLS MUNI AP         
USW00013972,28.8422700587084,32.3542,-95.4025,165.8,TYLER POUNDS FLD              
USW00013973,14.0821917808219,30.5108,-99.7664,533.1,JUNCTION KIMBLE CO AP         
