ID,value,LAT,LON,ELEV,NAME
USC00410012,14.2046256370051,33.8339,-101.8436,1026.6,ABERNATHY                     
USC00410050,19.9579517069109,31.2833,-98.15,313.9,ADAMSVILLE                    
USC00410120,18.7763415589503,32.7047,-99.3011,441.4,ALBANY                        
USC00410129,23.0778255768479,32.6444,-97.5617,240.8,ALEDO 4 SE                    
USC00410144,23.8874801901743,27.7283,-98.0678,61.3,ALICE                         
USC00410174,10.8826793499802,30.3764,-103.66,1356.4,ALPINE                        
USC00410190,30.8099800399202,31.6094,-95.1342,85.3,ALTO 5 SW                     
USC00410204,35.7631892106307,29.3653,-95.2336,8.5,ALVIN                         
USC00410225,14.4872897927259,29.4608,-101.0286,352.7,AMISTAD DAM                   
USC00410235,36.8362710536624,29.7878,-94.6342,7.3,ANAHUAC                       
USC00410246,21.7431744562703,30.7578,-97.8614,326.7,ANDICE 2 SW                   
USC00410248,10.2142577359969,32.3483,-102.5517,972.9,ANDREWS                       
USC00410257,42.9508521601268,29.1572,-95.4592,8.2,ANGLETON 2 W                  
USC00410262,28.1167392164622,33.35,-96.5167,207.3,ANNA                          
USC00410268,18.3838748495788,32.7667,-99.89,523.3,ANSON                         
USC00410271,20.025811497849,33.4414,-98.3689,312.4,ANTELOPE                      
USC00410305,30.814696485623,28.3081,-96.8047,4.6,ARANSAS WR                    
USC00410313,19.5954077593032,33.5989,-98.6544,305.1,ARCHER CITY 2W                
USC00410337,24.6816581931952,32.7572,-97.0736,163.4,ARLINGTON SIX FLAGS           
USC00410342,24.0929308975377,26.9333,-97.8,9.1,ARMSTRONG                     
USC00410394,16.6750097770825,33.1525,-100.2333,509,ASPERMONT                     
USC00410404,30.3768672641912,32.1633,-95.83,136.6,ATHENS                        
USC00410408,33.0951448707909,33.1244,-94.1661,96,ATLANTA                       
USC00410440,30.6519358623387,32.2067,-96.7958,161.5,AVALON                        
USC00410482,10.2870028700287,30.8878,-102.3008,776.3,BAKERSFIELD                   
USC00410493,17.8537348455221,31.7414,-99.9764,534.9,BALLINGER 2 NW                
USC00410498,9.51762376237624,30.9844,-103.7403,981.5,BALMORHEA                     
USC00410518,26.5047505938242,32.2631,-96.6369,140.5,BARDWELL DAM                  
USC00410569,35.2451298701299,28.9797,-95.975,15.8,BAY CITY WTR WKS              
USC00410611,41.1053288925895,30.0969,-94.0997,6.1,BEAUMONT CITY                 
USC00410635,28.296868645791,30.7833,-95.95,102.1,BEDIAS                        
USC00410639,25.5807587016034,28.4575,-97.7061,77.7,BEEVILLE 5 NE                 
USC00410665,23.6335549472038,31.1,-97.4833,202.4,BELTON DAM                    
USC00410690,17.3070422535211,27.5969,-98.4161,115.8,BENAVIDES 2                   
USC00410691,23.1986703167775,32.6475,-97.4439,240.8,BENBROOK DAM                  
USC00410704,15.9710371819961,33.5333,-99.7667,427,BENJAMIN 4 SSE                
USC00410738,24.0565338276182,30.7625,-98.0214,344.1,BERTRAM 3 ENE                 
USC00410779,13.2190066484161,31.2,-101.4625,833.3,BIG LAKE 2                    
USC00410787,19.3261634728197,28.5731,-99.6044,164.6,BIG WELLS 2W                  
USC00410832,23.9718420023465,30.095,-98.4142,399.3,BLANCO                        
USC00410861,15.0014506769826,30.5333,-104.1333,1756.9,BLOYS CAMPGROUND              
USC00410866,24.9323425889715,30.4,-97.15,139.9,BLUE                          
USC00410902,25.7418850215096,29.7986,-98.7353,440.4,BOERNE                        
USC00410917,37.2551385165326,30.7333,-93.65,27.1,BON WIER                      
USC00410923,32.6037212984956,33.6403,-96.1661,180.4,BONHAM 3NNE                   
USC00410944,14.9973626373626,36.4533,-100.5394,838.2,BOOKER                        
USC00410950,6.211576065702,29.1853,-102.9622,566.3,BOQUILLAS RS                  
USC00410958,12.3504106374658,35.6689,-101.4022,930.6,BORGER                        
USC00410984,22.2044740973312,33.5511,-97.8472,329.2,BOWIE                         
USC00410991,34.648416112632,33.5164,-94.8608,134.1,BOXELDER 3 NNE                
USC00410996,22.8111467522053,33.08,-97.5639,222.5,BOYD                          
USC00411007,16.8584178498986,29.3167,-100.4144,341.4,BRACKETTVILLE                 
USC00411017,21.7231661831745,31.1444,-99.3492,521.5,BRADY                         
USC00411033,11.4877755511022,35.62,-103.0072,1268,BRAVO                         
USC00411035,21.4798592100117,32.6489,-98.1336,256,BRAZOS                        
USC00411043,18.9346405228758,32.7667,-98.9333,406,BRECKENRIDGE 2 WNW            
USC00411045,24.8877590926867,31.1589,-96.6825,143.3,BREMOND                       
USC00411048,29.814235432147,30.1592,-96.3972,95.4,BRENHAM                       
USC00411063,21.4165037152914,33.2064,-97.7761,234.4,BRIDGEPORT                    
USC00411128,14.547907704341,33.1908,-102.2681,1005.8,BROWNFIELD #2                 
USC00411138,20.4401726167124,31.7383,-98.9456,424.9,BROWNWOOD 2ENE                
USC00411188,29.6272050176401,31.4667,-96.05,109.1,BUFFALO                       
USC00411203,13.5401174168297,36.1833,-100.8333,905.9,BULER 4 NNW                   
USC00411215,27.2772780602268,29.7383,-98.4522,329.2,BULVERDE                      
USC00411224,11.1835236541599,36.15,-102.9333,1325.3,BUNKER HILL                   
USC00411239,20.6127265065318,31.9917,-99.2203,478.2,BURKETT                       
USC00411245,24.5263981228002,32.5167,-97.3333,235,BURLESON 2 SSW                
USC00411248,25.5248337895972,31,-97.0333,125,BURLINGTON 3 WSW              
USC00411250,22.283144309738,30.7586,-98.2339,391.7,BURNET                        
USC00411314,28.7356276886977,30.5328,-96.7022,111.3,CALDWELL                      
USC00411348,24.079843444227,30.8458,-96.97,110.9,CAMERON                       
USC00411398,20.7643286573146,29.6703,-100.0097,451.1,CAMP WOOD                     
USC00411412,14.0399686520376,35.9092,-100.3883,701,CANADIAN                      
USC00411416,8.62230919765166,30.1383,-104.6822,876.9,CANDELARIA                    
USC00411425,32.1392256550645,32.5669,-95.9578,147.8,CANTON 5 W                    
USC00411429,27.1212358232303,29.8608,-98.1958,304.8,CANYON DAM                    
USC00411430,12.8701504354711,34.9806,-101.9264,1094.2,CANYON                        
USC00411490,26.4927649589363,32.985,-96.9258,166.1,CARROLLTON                    
USC00411492,15.5561643835616,29.7908,-100.6742,564.2,CARTA VALLEY                  
USC00411500,34.3764845605701,32.1614,-94.3397,93,CARTHAGE                      
USC00411528,16.4893026941363,28.3392,-99.6328,170.7,CATARINA                      
USC00411573,28.1965544244323,33.3167,-96.8,207,CELINA                        
USC00411578,35.4375733855186,31.8075,-94.1642,99.1,CENTER                        
USC00411580,20.929996089167,31.4683,-98.4106,416.1,CENTER CITY                   
USC00411596,26.8142913231253,31.2581,-95.9744,97.5,CENTERVILLE                   
USC00411625,23.719984356668,32.1561,-97.9369,345.3,CHALK MTN                     
USC00411649,12.7496917385943,35.6831,-102.33,1155.2,CHANNING 2                    
USC00411651,24.0958154086821,27.5892,-97.4547,7.6,CHAPMAN RCH                   
USC00411663,21.6171294485725,28.9275,-98.7494,134.4,CHARLOTTE 5 NNW               
USC00411701,15.9263705482193,34.25,-99.5167,427,CHILLICOTHE                   
USC00411715,12.6847868596011,29.2703,-103.3003,1615.4,CHISOS BASIN                  
USC00411778,12.6512272367379,35.11,-101.3619,1034.8,CLAUDE                        
USC00411800,25.454011741683,32.3139,-97.4061,238.7,CLEBURNE                      
USC00411810,35.8685960109503,30.3636,-95.0839,59.7,CLEVELAND                     
USC00411823,22.719984356668,31.8,-97.4333,203.9,CLIFTON 10 E                  
USC00411838,34.0947162426615,29.7067,-95.6878,26.5,CLODINE                       
USC00411870,34.4540477121627,30.5333,-95.15,108.2,COLDSPRING 5 SSW              
USC00411875,19.3456112852665,31.8278,-99.4319,523.6,COLEMAN                       
USC00411903,18.2363350373575,32.3978,-100.8594,643.1,COLORADO CITY                 
USC00411911,30.6175771971496,29.6989,-96.5731,68.6,COLUMBUS                      
USC00411914,19.8728979272585,31.8983,-98.6033,421.8,COMANCHE                      
USC00411946,12.2926158680283,36.2353,-102.2406,1164.3,CONLEN                        
USC00411956,34.2381697301525,30.3303,-95.4831,74.7,CONROE                        
USC00411970,33.519638648861,33.3744,-95.6933,148.1,COOPER                        
USC00411974,11.8412201798983,31.5333,-101.2842,755.9,COPE RCH                      
USC00411984,20.1769662921348,31.1167,-97.9,326.1,COPPERAS COVE                 
USC00412012,6.3687915526007,31.78,-105.47,1365.5,CORNUDAS SVC STN              
USC00412014,24.9730046948357,27.8,-97.4,3,CORPUS CHRISTI                
USC00412019,27.6769651935862,32.1225,-96.4867,136.9,CORSICANA                     
USC00412040,20.2443548387097,30.1806,-99.1539,647.1,COTTONWOOD 2NW                
USC00412080,28.3682974559687,32.6297,-96.4581,131.1,CRANDALL                      
USC00412082,8.94247246022032,31.4072,-102.3578,778.5,CRANE                         
USC00412096,23.030504497458,32.5286,-97.6189,316.7,CRESSON                       
USC00412114,29.8330074305827,31.3072,-95.4508,105.8,CROCKETT                      
USC00412121,15.2311302307391,33.6517,-101.245,917.4,CROSBYTON                     
USC00412128,20.0380243041944,32.1167,-99.1667,531,CROSS PLAINS                  
USC00412142,17.3408820023838,33.9897,-99.7303,451.1,CROWELL                       
USC00412160,17.1638639030113,28.6794,-99.8311,176.8,CRYSTAL CITY                  
USC00412206,36.4976452119309,30.0211,-95.7069,45.7,CYPRESS                       
USC00412218,29.9353943717796,30.4364,-95.7919,73.2,DACUS                         
USC00412225,33.523660539695,32.9203,-94.7225,91.4,DAINGERFIELD 9 S              
USC00412266,32.8105675146771,29.0567,-96.2319,21.3,DANEVANG 1 W                  
USC00412282,14.7781299524564,36.4439,-100.3317,783.9,DARROUZETT                    
USC00412352,32.4440842787682,33.4797,-94.6175,103.9,DEKALB                        
USC00412394,29.1948356807512,33.8167,-96.5667,186.8,DENISON DAM                   
USC00412404,28.7201097608781,33.1992,-97.105,192,DENTON 2 SE                   
USC00412436,40.5814889336016,30.2333,-93.7333,6.1,DEWEYVILLE 5 S                
USC00412444,30.9495107632094,31.8614,-95.2619,187.8,DIALVILLE 2 W                 
USC00412458,20.025811497849,28.6806,-99.1833,167.6,DILLEY                        
USC00412462,27.8039138943249,30.3558,-96.8289,112.2,DIME BOX                      
USC00412463,12.368962787015,34.55,-102.2167,1161.9,DIMMITT 6 E                   
USC00412464,11.677755511022,34.5858,-102.312,1173.5,DIMMITT 2 N                   
USC00412527,19.1439186546734,31.4833,-99.5667,442,DOOLE 6 NNE                   
USC00412590,8.57137270238561,30.05,-102.1167,667.5,DRYDEN                        
USC00412595,26.1912397340634,29.3833,-97.2667,92,DRYER 1 NW                    
USC00412598,23.9444661712945,32.0628,-98.3047,447.4,DUBLIN 2SE                    
USC00412617,12.5999217833399,35.8731,-101.9725,1114,DUMAS                         
USC00412621,17.9108606557377,33.8094,-100.5169,612.6,DUMONT                        
USC00412630,16.7342879872713,30.8,-100.1667,646.2,DUNCAN WILSON RCH             
USC00412633,17.5678033306899,33.8158,-98.9317,320.3,DUNDEE 6 NNW                  
USC00412678,23.1353919239905,32.8833,-97.4667,207,EAGLE MTN LAKE DAM            
USC00412679,17.3887775551102,28.7569,-100.4792,247.5,EAGLE PASS 3N                 
USC00412715,20.672530987605,32.3989,-98.8175,438.3,EASTLAND                      
USC00412741,19.6267190569745,31.2208,-99.8494,624.8,EDEN                          
USC00412772,32.4732107938991,32.3656,-95.6089,154.8,EDOM                          
USC00412786,31.3691037735849,29.2,-96.2653,33.5,EL CAMPO                      
USC00412812,14.3181996086106,30.9667,-100.7,759,ELDORADO 11 NW                
USC00412814,14.7111378205128,30.7333,-100.8833,719.9,ELDORADO 19 SW                
USC00412818,18.4340770791075,34.0308,-98.9117,370.6,ELECTRA                       
USC00412820,24.6143918654673,30.3642,-97.37,181.1,ELGIN 1 N                     
USC00412902,31.8665362035225,32.8711,-95.7797,147.5,EMORY                         
USC00412906,17.6712871287129,27.9775,-99.3847,166.1,ENCINAL                       
USC00412925,29.7337509788567,32.3333,-96.6333,160,ENNIS                         
USC00413000,37.2401251466562,30.3333,-94.0833,10.1,EVADALE                       
USC00413005,19.5213572854291,31.4625,-98.1619,379.5,EVANT 1SSW                    
USC00413033,6.36136096988659,31.5,-106.15,1100.9,FABENS                        
USC00413047,27.2542641808806,31.7322,-96.2078,131.7,FAIRFIELD 3W                  
USC00413060,16.2200237435695,26.5581,-99.1372,97.5,FALCON DAM                    
USC00413063,22.4523512276321,27.1353,-98.1203,42.4,FALFURRIAS                    
USC00413065,23.183221210922,28.9614,-98.1103,104.5,FALLS CITY 7 WSW              
USC00413080,29.2772780602268,33.1414,-96.2933,191.4,FARMERSVILLE                  
USC00413133,27.5404771216269,32.5339,-96.6608,143.3,FERRIS                        
USC00413142,19.0905868452147,31.3833,-99.3667,424,FIFE                          
USC00413156,24.9295223179327,29.9744,-98.2669,359.7,FISCHERS STORE                
USC00413183,27.9217495987159,29.6339,-97.0644,143.3,FLATONIA 4SE                  
USC00413196,15.0349272349272,34.2675,-100.9336,719.3,FLOMOT 4 NE                   
USC00413199,24.8756375049039,30.8394,-97.7928,300.5,FLORENCE                      
USC00413201,23.4965263588067,29.1333,-98.1628,121.9,FLORESVILLE                   
USC00413214,14.464215877982,33.985,-101.3339,981.5,FLOYDADA                      
USC00413215,14.2963556267521,33.8761,-101.2464,954,FLOYDADA 9 SE                 
USC00413225,16.214481409002,36.4328,-100.1369,844.3,FOLLETT                       
USC00413247,22.9053578412202,33.4661,-97.5797,338.3,FORESTBURG 5 S                
USC00413253,14.0873140172279,32.1117,-101.3642,838.2,FORSAN                        
USC00413262,10.9720308066478,30.5997,-103.8869,1482.5,FT DAVIS                      
USC00413266,8.24153166421208,31.1847,-105.7411,1064.7,FT HANCOCK 8SSE               
USC00413280,8.92508917954816,30.9072,-102.9153,926,FT STOCKTON                   
USC00413299,15.8549395581492,28.5033,-98.8392,91.4,FOWLERTON                     
USC00413321,25.8981606101391,31.0328,-96.4889,142.3,FRANKLIN                      
USC00413329,21.1560422369965,30.2392,-98.9089,513.6,FREDERICKSBURG                
USC00413340,38.7895971842002,28.9844,-95.3808,2.4,FREEPORT 2 NW                 
USC00413341,21.1251993620415,27.8722,-98.6175,171.3,FREER                         
USC00413368,10.6800938599922,34.64,-102.7231,1222.2,FRIONA                        
USC00413370,28.0664797757309,33.1925,-96.7931,227.7,FRISCO                        
USC00413379,25.1483365949119,32.0833,-96.8,159.1,FROST                         
USC00413401,15.0649247822645,31.4775,-100.7978,630.9,FUNK RCH                      
USC00413411,14.6013621794872,32.7744,-101.4539,771.1,GAIL                          
USC00413415,24.9968713335941,33.6358,-97.1447,237.7,GAINESVILLE                   
USC00413445,12.4442706296441,31.8667,-101.4814,809.2,GARDEN CITY                   
USC00413485,22.2754657154182,31.4144,-97.7019,251.8,GATESVILLE                    
USC00413506,25.6456785295268,30.6333,-97.6833,228,GEORGETOWN                    
USC00413508,22.6753794266442,28.3064,-98.1222,68.6,GEORGE W 2 SSW                
USC00413525,27.1079389910051,30.1872,-96.8594,167.6,GIDDINGS 5E                   
USC00413546,32.6833659491194,32.7464,-95.0497,118.9,GILMER 4 WNW                  
USC00413557,10.4556120453657,31.0667,-102.4,705,GIRVIN                        
USC00413591,25.6699256941729,32.2342,-97.7853,199.6,GLEN ROSE 2 W                 
USC00413605,23.7543996871334,30.3481,-98.6861,499.9,GOLD                          
USC00413614,20.0568090249799,31.4406,-98.5903,459.3,GOLDTHWAITE 1 WSW             
USC00413618,29.3578412201799,28.6617,-97.385,43.3,GOLIAD                        
USC00413622,25.9800547516621,29.4744,-97.4481,90.2,GONZALES 2S                   
USC00413668,20.2905748924521,33.1203,-98.5669,328.6,GRAHAM                        
USC00413680,7.05684045472364,31.3028,-102.8222,739.1,GRANDFALLS 3SSE               
USC00413685,24.7448875255624,30.715,-97.4483,174.3,GRANGER                       
USC00413689,30.9212690951821,31.4833,-95.4833,146,GRAPELAND                     
USC00413691,24.797730829421,32.9506,-97.0553,178.3,GRAPEVINE DAM                 
USC00413734,28.8990498812352,33.1678,-96.0983,166.1,GREENVILLE KGVL RADIO         
USC00413770,29.21875,31.5167,-96.5333,143,GROESBECK                     
USC00413778,31.7429166666667,31.1964,-95.1461,106.7,GROVETON                      
USC00413787,13.3895189675401,36.2631,-101.405,966.2,GRUVER                        
USC00413822,28.4399687133359,33.375,-96.7611,224,GUNTER 5 S                    
USC00413828,15.5871596911824,33.6267,-100.3369,536.4,GUTHRIE                       
USC00413841,16.9181286549708,33.9333,-100.1333,509,HACKBERRY                     
USC00413846,31.4070939137445,33.3361,-95.2486,109.7,HAGANSPORT                    
USC00413873,27.8128447596533,29.4706,-96.9397,83.8,HALLETTSVILLE 2 N             
USC00413890,16.5322643723113,32.8694,-100.1211,524.3,HAMLIN 1SW                    
USC00413941,33.0983542319749,32.6761,-94.5781,105.2,HARLETON                      
USC00413943,21.3176003528893,26.2028,-97.6728,11.6,HARLINGEN                     
USC00413954,19.1049920760697,30.3086,-99.203,643.1,HARPER 3ENE                   
USC00413972,12.4744897959184,34.3697,-102.1175,1116.5,HART                          
USC00413981,12.1755964020336,35.8656,-102.3319,1190.2,HARTLEY 4 ESE                 
USC00413992,18.4446617129449,33.1644,-99.7389,484.6,HASKELL                       
USC00414020,31.1351351351351,32.5781,-95.2033,102.1,HAWKINS                       
USC00414058,18.9800547516621,27.3194,-98.6775,176.8,HEBBRONVILLE                  
USC00414076,36.8371116708648,31.35,-93.8333,91.4,HEMPHILL                      
USC00414080,32.8683901292597,30.1,-96.0833,76.5,HEMPSTEAD                     
USC00414081,34.0097770825186,32.1808,-94.7964,128,HENDERSON                     
USC00414093,22.3128666405944,33.8128,-98.2003,283.5,HENRIETTA                     
USC00414098,11.0422369964803,34.8172,-102.4003,1164.3,HEREFORD                      
USC00414122,23.893542074364,31.4667,-97.2,201.2,HEWITT                        
USC00414137,22.859992178334,31.9844,-98.0311,317.9,HICO                          
USC00414140,15.5037593984962,36.1161,-100.0239,781.5,HIGGINS                       
USC00414182,25.8979272585061,32.0161,-97.1094,167.6,HILLSBORO                     
USC00414254,23.0230739147438,29.3364,-99.1386,267.9,HONDO                         
USC00414257,33.5283168316832,33.5869,-95.9075,201.8,HONEY GROVE                   
USC00414278,18.7379741885022,31.8456,-99.5606,594.1,HORDS CREEK DAM               
USC00414280,33.9305882352941,31,-94.1667,34.1,HORGER                        
USC00414313,31.03602192639,29.8142,-95.7275,38.7,HOUSTON BARKER                
USC00414315,36.3135391923991,29.7283,-95.1306,10.7,HOUSTON DEER PARK             
USC00414321,35.6039138943249,29.7914,-95.4261,19.8,HOUSTON HTS                   
USC00414323,35.487079091621,29.8667,-95.4167,28.3,HOUSTON INDEP HTS             
USC00414325,33.8835750686006,29.66,-95.6275,15.2,HOUSTON-WESTBURY              
USC00414327,32.4400793650794,29.8733,-95.5275,34.1,HOUSTON NORTH HOUSTON         
USC00414328,35.2159270998415,29.9167,-95.15,17.7,HOUSTON SAN JACINTO DA        
USC00414331,34.5406041584935,29.8042,-95.4914,28,HOUSTON SPRING BRANCH         
USC00414343,23.8886671987231,32.3389,-98.2972,431.3,HUCKABAY                      
USC00414362,34.4018392642943,30,-95.25,31.1,HUMBLE                        
USC00414363,17.1420361247947,30.3614,-100.305,668.4,HUMBLE PUMP STN 5 WNW         
USC00414374,19.4994124559342,30.0294,-99.3614,570,HUNT 3 SW                     
USC00414382,30.5475166210403,30.7064,-95.5422,150.6,HUNTSVILLE                    
USC00414390,22.8250890383854,31.6544,-97.7086,313.9,HURST SPRINGS                 
USC00414402,21.4178200692042,30.2533,-98.5711,443.8,HYE                           
USC00414425,6.70521633643348,31.2667,-102.7,731.5,IMPERIAL                      
USC00414440,21.1607352366054,31.6667,-98.4167,480.1,INDIAN GAP                    
USC00414517,18.6631037212985,33.2064,-98.1689,329.5,JACKSBORO                     
USC00414523,33.7123070834982,31.3167,-94.2833,82,BROADDUS                      
USC00414525,31.4649371706526,31.9622,-95.2736,170.7,JACKSONVILLE                  
USC00414570,14.537857983523,33.2542,-100.5731,612.6,JAYTON                        
USC00414575,26.8979272585061,29.7664,-97.3164,126.5,JEDDO 3S                      
USC00414577,31.3366733466934,32.7692,-94.3592,64.3,JEFFERSON                     
USC00414591,26.8300627943485,31.35,-96.15,155.4,JEWETT                        
USC00414605,23.7313019390582,30.3,-98.4094,346.6,JOHNSON CITY 2N               
USC00414670,17.6968299711816,30.4453,-99.8045,532.5,JUNCTION 4SSW                 
USC00414693,34.9734337827121,32.6664,-94.1781,77.7,KARNACK                       
USC00414696,21.2742834394905,28.9069,-97.8756,137.2,KARNES CITY 2N                
USC00414705,29.5811455847255,32.5589,-96.2725,128,KAUFMAN 3 SE                  
USC00414752,25.9762812367641,28.8167,-97.85,85,KENEDY                        
USC00414761,25.4358974358974,32.55,-97.2333,225.9,KENNEDALE 6 SSW               
USC00414767,10.3271633503008,31.0667,-104.15,1275,KENT 5 E                      
USC00414780,20.6650165016502,30.05,-99.15,499.9,KERRVILLE                     
USC00414791,22.0511986997156,31.1167,-97.7,244.1,KILLEEN                       
USC00414810,23.1980982567353,27.5311,-97.8497,17.4,KINGSVILLE                    
USC00414819,41.8869769260853,30.6167,-93.9167,61,KIRBYVILLE                    
USC00414903,29.853919239905,29.9175,-96.8769,108.8,LA GRANGE                     
USC00414960,18.4737871674491,32.2261,-99.8172,611.4,TUSCOLA 2NW                   
USC00415013,13.1318816762531,32.7228,-101.9456,903.7,LAMESA 1 SSE                  
USC00415018,22.3433711380524,31.0717,-98.1847,314.6,LAMPASAS                      
USC00415060,19.3266438941076,27.5683,-99.4983,131.1,LAREDO 2                      
USC00415086,18.0596094552929,33.8833,-100.3833,594.4,LATIMER RCH                   
USC00415094,27.6575613618369,33.0353,-96.4861,155.4,LAVON DAM                     
USC00415097,18.355676581483,32.1414,-99.7528,594.4,LAWN                          
USC00415158,12.6041067761807,32.3081,-101.8775,867.2,LENORAH                       
USC00415183,13.703167774736,33.55,-102.3758,1071.1,LEVELLAND                     
USC00415192,25.960500586625,33.0694,-97.0094,169.5,LEWISVILLE DAM                
USC00415193,24.5641025641026,30.4064,-97.0133,128.9,LEXINGTON                     
USC00415229,34.4724286272976,33.0161,-94.3675,126.5,LINDEN                        
USC00415243,20.7019945248338,32.5725,-98.0803,301.4,LIPAN 4NW                     
USC00415247,14.053776196125,36.2361,-100.2708,728.5,LIPSCOMB                      
USC00415265,13.7892234548336,33.8692,-102.2592,1056.4,LITTLEFIELD                   
USC00415271,34.7645678529527,30.7394,-94.9256,54.3,LIVINGSTON 2 NNE              
USC00415272,19.3152131403989,30.7425,-98.6542,310.9,LLANO                         
USC00415284,23.0797275641026,29.8858,-97.6917,166.7,LOCKHART                      
USC00415327,29.858557844691,31.6167,-95.85,95.1,LONG LAKE 5 SW                
USC00415341,34.4541895066562,32.4725,-94.7172,100.6,LONGVIEW                      
USC00415351,11.4942481511915,32.9,-102.4167,989.1,LOOP                          
USC00415398,30.5956862745098,31.1333,-95.45,92,LOVELADY                      
USC00415429,25.856863511928,29.6756,-97.6578,121.9,LULING                        
USC00415477,30.3559122944401,30.9392,-95.9203,76.8,MADISONVILLE                  
USC00415583,18.5571142284569,31.1,-99.5667,591.9,MARCO                         
USC00415596,9.92999608916699,30.3125,-104.0722,1460,MARFA 3W                      
USC00415611,26.4473475851148,31.305,-96.8767,124.1,MARLIN                        
USC00415618,33.8646917534027,32.4892,-94.3289,92,MARSHALL                      
USC00415658,15.0735236605397,34.025,-100.8117,719.3,MATADOR                       
USC00415659,34.6206896551724,28.6836,-95.9733,3,MATAGORDA NO 2                
USC00415661,30.2627186009539,28.0372,-97.8725,42.1,MATHIS 4 SSW                  
USC00415667,34.9721786833856,33.3322,-94.3436,93,MAUD                          
USC00415701,18.209900990099,26.1917,-98.2511,30.5,MCALLEN                       
USC00415707,9.00625978090767,31.1331,-102.2217,750.1,MCCAMEY                       
USC00415721,22.2129849564529,26.565,-98.1236,67.1,MCCOOK                        
USC00415742,24.7344854673998,29.81,-99.2497,521.8,MEDINA 1NE                    
USC00415757,23.5926222935044,31.435,-97.4011,220.4,MCGREGOR                      
USC00415766,27.7306635257165,33.1903,-96.5914,178.6,MCKINNEY  MUNICIPAL AIRPORT   
USC00415770,15.3584905660377,35.2361,-100.5922,802.2,MC LEAN                       
USC00415821,13.280674245394,34.7261,-100.5372,637,MEMPHIS                       
USC00415822,19.4493547125538,30.9044,-99.7867,603.2,MENARD                        
USC00415836,19.9275534441805,26.0619,-97.8997,22.9,MERCEDES 6 SSE                
USC00415847,23.8514734774067,31.8833,-97.7,313.3,MERIDIAN SP                   
USC00415859,13.514072119613,31.2667,-100.8167,679.4,MERTZON                       
USC00415869,27.9710371819961,31.6181,-96.4497,153.3,MEXIA                         
USC00415875,14.9005112072356,35.6936,-100.6392,837.3,MIAMI                         
USC00415878,34.2904085257549,33.8,-95.5,149.4,MID CITY 4 SE                 
USC00415891,10.1868865331763,32.0186,-102.0258,846.1,MIDLAND 4 ENE                 
USC00415954,30.6161378770074,32.635,-95.4822,111.9,MINEOLA                       
USC00415956,31.7256360078278,32.7167,-95.3667,117.3,MINEOLA 8 ENE                 
USC00415972,17.9511804721889,26.2167,-98.4,40.5,MISSION 4 W                   
USC00416024,31.8646851779429,30.3908,-95.6969,97.5,MONTGOMERY                    
USC00416058,25.3375048885413,32.0139,-97.6131,221.9,MORGAN                        
USC00416060,22.3416927899687,32.3842,-98.1703,321.9,MORGAN MILL                   
USC00416070,14.6202330508475,36.0608,-101.4747,969.3,MORSE                         
USC00416074,13.3221419464513,33.7186,-102.7586,1147.9,MORTON                        
USC00416104,13.2937254901961,30.7053,-104.0233,2069.6,MT LOCKE                      
USC00416108,34.8439577630035,33.1689,-95.0056,129.5,MT PLEASANT                   
USC00416119,32.3466509988249,33.1964,-95.2236,136.2,MT VERNON                     
USC00416130,25.3253813062182,33.6564,-97.3769,315.8,MUENSTER                      
USC00416135,10.6703167774736,34.2192,-102.7328,1167.4,MULESHOE #1                   
USC00416146,18.9894407508799,33.4539,-99.6158,451.1,MUNDAY                        
USC00416190,32.8542413381123,33.1833,-94.6833,110,NAPLES 1 SW                   
USC00416205,21.945248337896,29.2,-98.85,217,NATALIA                       
USC00416210,26.0657019945248,31.9611,-96.6881,138.4,NAVARRO MILLS DAM             
USC00416247,35.1816375198728,33.7042,-95.07,123.4,NEGLEY 4 SSW                  
USC00416257,20.1982792334767,29.95,-99.5167,647.7,NELSON RCH                    
USC00416265,34.2628280454367,31.6503,-94.1519,146.3,NEUVILLE                      
USC00416276,25.7301525224873,29.6597,-98.1636,219.5,NEW BRAUNFELS                 
USC00416280,33.6771037181996,30.1375,-95.1783,71.6,NEW CANEY 2 E                 
USC00416286,34.9061400078217,29.2667,-95.895,21.9,NEW GULF                      
USC00416331,20.6406739811912,33.4561,-98.0253,323.1,NEWPORT 1SW                   
USC00416339,36.0450304259635,30.85,-93.7667,57.9,NEWTON                        
USC00416367,22.1603021401595,31.1081,-98.3794,414.5,NIX STORE 1 W                 
USC00416368,25.0684931506849,29.2828,-97.7675,103.6,NIXON                         
USC00416433,14.4222503160556,34.2606,-100.6014,630.9,NORTHFIELD                    
USC00416477,14.6159561986703,36.1014,-100.5894,883.9,NOTLA 3 SE                    
USC00416495,17.3320297223309,32.0419,-100.2775,613.6,OAK CREEK LAKE                
USC00416502,9.03601108033241,31.8797,-102.3592,887,ODESSA                        
USC00416641,18.4328767123288,33.4372,-98.7806,360.9,OLNEY 5 NNW                   
USC00416664,40.2537074148297,30.0858,-93.7417,3,ORANGE                        
USC00416722,31.8392647633946,32.2667,-94.9833,152.4,OVERTON                       
USC00416734,14.6425215348473,30.7169,-101.2061,714.8,OZONA                         
USC00416740,16.2004008016032,34.0067,-100.2989,579.1,PADUCAH                       
USC00416742,18.4145129224652,33.8083,-100.2981,558.4,PADUCAH 15 S                  
USC00416747,18.7551818537348,31.5064,-99.9305,504.1,PAINT ROCK                    
USC00416766,23.1040031397174,32.7664,-98.3083,317,PALO PINTO                    
USC00416776,13.7824881141046,35.5544,-100.9736,960.1,PAMPA #2                      
USC00416785,14.3491998358638,35.3514,-101.3897,1055.5,PANHANDLE                     
USC00416792,9.70903402424717,29.3272,-103.2061,1140,PANTHER JUNCTION              
USC00416794,35.4294094642159,33.6744,-95.5586,165.2,PARIS                         
USC00416892,7.03639921722114,31.4167,-103.5,795.5,PECOS                         
USC00416932,8.64611486486487,31.7356,-102.5897,894,PENWELL                       
USC00416950,13.9819403611928,36.3897,-100.8239,896.7,PERRYTON                      
USC00416953,13.8032850997262,36.4408,-100.9961,917.4,PERRYTON 11 WNW               
USC00417020,33.5436161776368,29.2353,-96.1817,32,PIERCE 1 E                    
USC00417028,29.474921630094,33.3658,-97.0122,210.3,PILOT POINT ISL DU BOI        
USC00417060,16.2004197271773,33.5992,-100.5319,592.8,PITCHFORK RCH                 
USC00417066,31.4066797642436,32.9264,-94.9392,111.3,PITTSBURG 5 SSE               
USC00417074,11.6692789968652,33.1869,-102.8281,1120.1,PLAINS                        
USC00417079,12.3915426781519,34.1892,-101.7022,1027.2,PLAINVIEW                     
USC00417140,34.8340628730601,28.6575,-96.5553,6.1,PT COMFORT                    
USC00417184,19.9693516699411,26.5578,-97.4264,2.7,PORT MANSFIELD                
USC00417186,30.8183707398171,28.4342,-96.4278,1.5,PORT O'CONNOR                 
USC00417205,17.9497228820269,32.8667,-98.4333,274.9,POSSUM KINGDOM DAM            
USC00417206,16.2788423934298,33.1986,-101.3744,795.8,POST                          
USC00417213,25.6898203592814,30.2667,-96.7167,96.9,POST OAK SCHOOL               
USC00417215,22.2742759795571,29.0281,-98.5686,129.5,POTEET                        
USC00417230,29.5291109362707,32.0833,-95.5833,161.8,POYNOR 1 NE                   
USC00417232,20.2688284518828,29.9167,-99.7908,625.4,PRADE RCH                     
USC00417262,7.06653465346535,29.5711,-104.3714,795.5,PRESIDIO                      
USC00417271,29.7411487018096,32.1167,-94.9667,113.1,PRICE 2 SW                    
USC00417300,21.2667188111068,31.9633,-98.4942,372.2,PROCTOR RSVR                  
USC00417327,19.0508408290966,32.3664,-99.1925,494.1,PUTNAM                        
USC00417336,16.1170003926188,34.2761,-99.7578,488.3,QUANAH 2 SW                   
USC00417363,29.7072590241968,32.7833,-95.4333,114.3,QUITMAN                       
USC00417388,23.872115760657,32.2619,-97.7064,197.5,RAINBOW                       
USC00417426,20.4588235294118,32.4667,-98.7,470,RANGER 1 W                    
USC00417431,11.5721548689871,31.2286,-101.9461,797.1,RANKIN                        
USC00417458,22.7286609240407,26.4644,-97.7847,9.4,RAYMONDVILLE                  
USC00417480,20.4303599374022,31.2178,-98.5833,382.5,RED BLUFF CROSSING            
USC00417481,7.40557404326123,31.895,-103.9183,867.8,RED BLUFF DAM                 
USC00417495,27.913179507235,32.5156,-96.8092,182.9,RED OAK                       
USC00417497,26.2747121873759,29.9667,-97.45,158.5,RED ROCK                      
USC00417529,33.2698474775127,28.3,-97.2833,14.9,REFUGIO                       
USC00417547,32,31.9,-94.9833,100.9,REKLAW 3 NNE                  
USC00417586,32.2843175596402,30.5381,-95.8458,96,RICHARDS                      
USC00417588,29.0442270058708,32.9964,-96.7428,206.7,RICHARDSON                    
USC00417593,20.2159800249688,31.27,-98.9486,420.6,RICHLAND SPRINGS              
USC00417594,32.7022562449637,29.5839,-95.7553,30.8,RICHMOND                      
USC00417622,19.2983555207518,26.3769,-98.8117,52.4,RIO GRANDE CITY               
USC00417628,20.710494079216,29.4417,-98.88,259.1,RIOMEDINA                     
USC00417633,22.2657200811359,32.0817,-98.9658,497.7,RISING STAR 1S                
USC00417659,23.9698865858428,33.005,-97.2331,195.4,ROANOKE                       
USC00417669,16.6718131433096,31.8836,-100.5358,583.4,ROBERT LEE 4WSW               
USC00417677,28.0833007430583,27.7894,-97.6619,25.9,ROBSTOWN                      
USC00417678,16.4817718541748,32.7333,-100.3833,604.1,ROBY                          
USC00417685,27.8537348455221,30.6431,-97.0372,160.9,ROCKDALE                      
USC00417704,31.1685569026203,28.0183,-97.0561,2.4,ROCKPORT                      
USC00417706,16.1767716535433,30.0239,-100.2119,726,ROCKSPRINGS                   
USC00417707,28.9065310911224,32.9331,-96.4647,165.5,ROCKWALL                      
USC00417712,18.036858974359,29.7889,-100.425,525.8,ROCKSPRINGS 18 SW             
USC00417743,18.9823874755382,32.4481,-100.5264,725.4,ROSCOE                        
USC00417744,28.7139959432049,31.0736,-96.9789,125,ROSEBUD                       
USC00417768,26.4451397580309,31.7167,-97.1167,174,ROSS                          
USC00417769,17.3088842975207,33.5833,-100.0167,506,ROSS RCH                      
USC00417782,16.9151349237388,32.8556,-100.4611,608.1,ROTAN                         
USC00417787,21.2821527502968,30.4247,-98.3492,392.6,ROUND MTN                     
USC00417791,24.0564553447478,30.5414,-97.635,219.8,ROUND ROCK 3 NE               
USC00417836,24.8611654282362,28.8297,-97.7133,89.9,RUNGE                         
USC00417841,32.7766040688576,31.8092,-95.1428,211.8,RUSK                          
USC00417873,19.9691506410256,29.3278,-99.4653,290.2,SABINAL                       
USC00417921,7.24951114587407,31.7833,-104.9,1186,SALT FLAT 10 ENE              
USC00417936,40.1327554744526,31.0619,-94.1011,57.6,SAM RAYBURN DAM               
USC00417940,15.3914743840438,31.4667,-100.4833,598,SAN ANGELO DAM                
USC00417952,22.0518460329929,26.1333,-97.6333,11.9,SAN BENITO                    
USC00417983,24.6369095276221,29.8833,-97.9494,202.7,SAN MARCOS                    
USC00417992,20.174168297456,31.1833,-98.7167,364.2,SAN SABA                      
USC00418022,9.85548438751001,30.1414,-102.3917,849.8,SANDERSON                     
USC00418081,21.1349237387564,27.2169,-97.6956,11.6,SARITA 7 E                    
USC00418126,28.7285881892843,29.6825,-96.8564,88.4,SCHULENBURG                   
USC00418201,11.8987094251075,32.7131,-102.6597,1016.8,SEMINOLE                      
USC00418221,18.7485334376222,33.6419,-99.2894,399.6,SEYMOUR 3NW                   
USC00418235,16.3236790606654,35.2,-100.25,708.1,SHAMROCK                      
USC00418236,15.1028549080954,35.215,-100.2503,719.3,SHAMROCK #2                   
USC00418252,9.53961965134707,30.6886,-101.8272,662.9,SHEFFIELD                     
USC00418274,30.8681710213777,33.7033,-96.6419,231.6,SHERMAN                       
USC00418305,8.57226792009401,31.1831,-105.3542,1399,SIERRA BLANCA 2 E             
USC00418323,13.9083431257344,34.4722,-101.3006,999.7,SILVERTON                     
USC00418354,30.1619160728424,28.0422,-97.5428,14.6,SINTON                        
USC00418373,15.2725850606179,33.4367,-101.6472,939.4,SLATON                        
USC00418378,23.4345611285267,33.3583,-97.3933,300.2,SLIDELL                       
USC00418382,22.0117324990223,31.15,-98.9167,396.8,SLOAN                         
USC00418433,16,32.71,-100.9111,706.8,SNYDER                        
USC00418446,28.1200625733281,30.3367,-96.5403,80.2,SOMERVILLE DAM                
USC00418449,15.9603078169299,30.5831,-100.6503,651.7,SONORA                        
USC00418519,31.9873217115689,29.2728,-96.6858,43.6,SPEAKS 2                      
USC00418523,13.8658584278451,36.1981,-101.1847,943.4,SPEARMAN                      
USC00418531,21.9712696941613,30.4814,-98.1606,259.1,SPICEWOOD                     
USC00418544,26.0379350801721,29.8653,-98.3797,306.3,SPRING BRANCH 2SE             
USC00418561,23.3150630914827,32.9667,-97.6667,264.9,SPRINGTOWN                    
USC00418583,17.1256440745145,32.9403,-99.8036,491.3,STAMFORD 1                    
USC00418630,14.2213531482206,31.8347,-100.9828,694.9,STERLING CITY                 
USC00418646,22.4455755677369,31.0372,-97.5283,215.2,STILLHOUSE HOLLOW DAM         
USC00418692,12.5549472037544,36.4414,-102.0775,1098.2,STRATFORD                     
USC00418696,22.3914743840438,32.6592,-98.4678,359.7,STRAWN 8 NNE                  
USC00418728,34.2323034806414,29.6219,-95.6567,25.6,SUGAR LAND                    
USC00418743,33.2456003128666,33.1481,-95.6269,150.9,SULPHUR SPRINGS               
USC00418761,12.1134554140127,35.9667,-101.8667,1079.9,SUNRAY 4 SW                   
USC00418818,14.8234833659491,33.1714,-101.7981,951,TAHOKA                        
USC00418833,13.0444268147561,34.4667,-100.8167,686.1,TAMPICO                       
USC00418852,13.4333202972233,35.5667,-102.3,1040,TASCOSA                       
USC00418861,25.1369863013699,30.57,-97.4092,172.2,TAYLOR                        
USC00418863,20.9804234918098,30.9731,-98.9433,556.3,TAYLOR RCH                    
USC00418877,22.1448707909162,30.4333,-98.8097,524.3,TEAGUE RCH                    
USC00418897,18.149169031212,30.3289,-99.9067,524.6,TELEGRAPH                     
USC00418910,24.1419632381697,31.0781,-97.3183,193.5,TEMPLE                        
USC00418929,29.7988915281077,32.7336,-96.3225,150.9,TERRELL                       
USC00418942,33.3961377870564,33.4367,-94.0772,118.9,TEXARKANA                     
USC00418944,33.094324853229,33.3,-94.1667,86,TEXARKANA DAM                 
USC00418996,32.452092295659,29.4822,-95.6314,21.3,THOMPSONS 3 WSW               
USC00419001,23.5932438685794,30.6147,-97.2086,144.8,THORNDALE                     
USC00419004,27.1746280344558,31.3917,-96.5656,144.8,THORNTON 1SSE                 
USC00419014,18.5745013687916,33.1806,-99.1897,417.6,THROCKMORTON                  
USC00419015,22.4514984227129,32.5333,-98.3333,293.8,THURBER 5 NE                  
USC00419076,29.3104536489152,30.1003,-95.6114,64,TOMBALL                       
USC00419101,37.04229390681,30.7931,-94.1819,65.2,TOWN BLUFF DAM                
USC00419106,6.70746969104419,31.3,-103.8,857.1,TOYAH                         
USC00419125,31.759483770043,33.4311,-96.3397,229.8,TRENTON                       
USC00419137,28.2319123973406,32.1333,-96.1,89,TRINIDAD PWR PLT              
USC00419153,24.325772389519,31.2061,-97.2956,213.4,TROY                          
USC00419163,16.6051703877791,33.7569,-99.8619,478.8,TRUSCOTT 3 W                  
USC00419175,12.1008994915917,34.5475,-101.7614,1060.7,TULIA                         
USC00419191,13.9235641891892,34.3956,-100.8972,710.2,TURKEY                        
USC00419214,31.6539984164687,32.4,-95.2667,149,TYLER 5 NE                    
USC00419224,10.9453897902651,34.9578,-102.1044,1141.8,UMBARGER                      
USC00419265,16.8631208447399,29.2167,-99.7667,278,UVALDE                        
USC00419275,9.68876538308853,30.5525,-104.6467,1339.3,VALENTINE 10 WSW              
USC00419286,24.8044583496285,33.4869,-97.1572,221,VALLEY VIEW                   
USC00419330,11.929996089167,35.2775,-102.4633,1218.6,VEGA 2NW                      
USC00419346,17.813627254509,34.1517,-99.3256,368.8,VERNON                        
USC00419410,18.390860873113,31.6167,-99.5833,502.9,VOSS 1 WSW                    
USC00419417,24.9425107547908,31.6003,-97.2169,150.9,WACO DAM                      
USC00419435,13.3654266958425,34.9333,-102.9833,1253.9,WALCOTT                       
USC00419448,30.7809933515839,30.0486,-95.925,43.6,WALLER                        
USC00419480,38.6563600782779,30.5833,-94.4,33.5,WARREN 2 S                    
USC00419491,29.1992694805195,30.3236,-96.1594,65.5,WASHINGTON SP                 
USC00419499,15.1827788649706,31.6725,-100.7283,644.7,WATER VALLEY                  
USC00419501,16.688176519567,31.8136,-100.6286,748.3,WATER VALLEY 11 NNE           
USC00419504,19.6165971256375,30.9297,-98.0219,310.3,WATSON                        
USC00419522,28.8535813217254,32.4281,-96.8422,190.8,WAXAHACHIE                    
USC00419532,22.2221353148221,32.7483,-97.77,291.1,WEATHERFORD                   
USC00419559,28.5156313438896,28.1136,-97.4178,15.2,WELDER WILDLIFE FOUNDATION    
USC00419565,14.3000447828034,34.8422,-100.2103,621.8,WELLINGTON                    
USC00419715,24.4223699648025,31.8611,-97.375,175,WHITNEY DAM                   
USC00419717,20.583733974359,28.6611,-98.2553,78.6,WHITSETT                      
USC00419800,33.2628661916073,32.7019,-96.015,158.5,WILLS PT                      
USC00419836,28.8476499189627,33.025,-95.2411,155.1,WINNSBORO 5 NNE               
USC00419847,20.1894896412329,32.0444,-100.1078,613.3,WINGATE                       
USC00419853,14.5321477428181,32.4833,-100.3,637,WITT RCH                      
USC00419859,30.3191239734063,33.3675,-96.0675,201.2,WOLFE CITY                    
USC00419952,27.5612445844821,29.2739,-97.1556,89.9,YOAKUM                        
USC00419953,29.5732383214569,28.9803,-97.5186,79.2,YORKTOWN                      
USC00419966,5.61718131433096,31.6953,-106.3217,1118.6,YSLETA                        
USC00419976,16.8845247446976,26.8706,-99.2536,97.5,ZAPATA 1 S                    
USW00003904,33.4325381306218,30.5892,-96.3647,93,COLLEGE STN                   
USW00003927,24.518967540086,32.8978,-97.0189,170.7,DALLAS FT WORTH AP            
USW00012912,28.9972624168948,28.8614,-96.9303,35.1,VICTORIA RGNL AP              
USW00012917,37.9616738365272,29.9506,-94.0206,4.9,PORT ARTHUR SE TX AP          
USW00012918,36.5501174628035,29.6381,-95.2819,13.4,HOUSTON HOBBY AP              
USW00012919,20.7985921001173,25.9156,-97.4186,7,BROWNSVILLE                   
USW00012921,22.8032850997262,29.5442,-98.4839,240.5,SAN ANTONIO INTL AP           
USW00012924,25.8150175987485,27.7839,-97.5108,13.7,CORPUS CHRISTI                
USW00012925,24.7249508840864,28.3667,-97.6667,60,BEEVILLE CHASE NAAS           
USW00012926,27.1425773599687,27.6833,-97.2833,5.5,CORPUS CHRISTI NAS            
USW00012928,22.8838482596793,27.5,-97.8167,17.1,KINGSVILLE NAAS               
USW00012935,33.9272585060618,28.7247,-96.2536,3.7,PALACIOS MUNI AP              
USW00012944,31.1083300743058,29.3,-94.8,2.1,GALVESTON                     
USW00012945,29.1615174032069,29.7667,-95.3667,15.8,HOUSTON WB CITY               
USW00012947,18.2812989045383,28.4567,-99.2183,145.1,COTULLA LA SALLE CO AP        
USW00012959,18.0985473105614,26.1839,-98.2539,30.5,MCALLEN MILLER INTL AP        
USW00012960,35.0370149253731,29.98,-95.36,29,HOUSTON INTERCONT AP          
USW00013958,22.6574110285491,30.3208,-97.7603,204.2,AUSTIN-CAMP MABRY             
USW00013959,22.8592100117325,31.6189,-97.2283,152.4,WACO RGNL AP                  
USW00013960,24.8353539303872,32.8519,-96.8556,134.1,DALLAS LOVE FLD               
USW00013962,17.7852952678921,32.4106,-99.6822,545.6,ABILENE RGNL AP               
USW00013966,18.5385217051232,33.9786,-98.4928,310,WICHITA FALLS MUNI AP         
USW00022010,13.8075870160344,29.3783,-100.9269,304.5,DEL RIO INTL AP               
USW00023007,13.1920219006648,34.4272,-100.2831,594.7,CHILDRESS MUNI AP             
USW00023023,8.8674227610481,31.9433,-102.1889,874.2,MIDLAND ODESSA                
USW00023034,15.0848650762612,31.3711,-100.4922,576.1,SAN ANGELO                    
USW00023040,7.32147047321079,31.78,-103.2017,855.6,WINKLER CO AP                 
USW00023041,13.7141738449491,32.2442,-101.4536,765,BIG SPRING                    
USW00023042,13.9268674227611,33.6542,-101.8136,993.3,LUBBOCK                       
USW00023044,5.16816581931952,31.8111,-106.3758,1194.2,EL PASO INTL AP               
USW00023047,12.2643723113023,35.2333,-101.7089,1093.3,AMARILLO                      
USW00023072,14.0559249120063,34.9325,-100.8903,823,CLARENDON                     
USW00093042,12.8494329292139,36.0167,-102.55,1216.2,DALHART MUNI AP               
USW00093901,21.8220570981619,32.7333,-96.9667,150,DALLAS HENSLEY FLD NAS        
USW00093914,30.9267413931145,31.7831,-95.6039,141.7,PALESTINE 2 NE                
USW00093985,22.5580758701603,32.7817,-98.0603,283.5,MINERAL WELLS AP              
USW00093987,31.1517403206883,31.2361,-94.7544,87.8,LUFKIN ANGELINA CO AP         
